 [
{
  "srno" : "5260",
  "pincode" : "211004",
  "longitude" : "81.879869",
  "latitude" : "25.476163",
  "Taluka_Name" : "Allahabad",
  "State_Name" : "Uttar Pradesh",
  "Health_Facility_Name" : "Bada Bagahada",
  "Facility_Type" : "Urban Health Centre",
  "District_Name" : "Allahabad ",
  "Block_Name" : "\\N",
  "Address" : "-"
},
{
  "srno" : "5261",
  "pincode" : "211011",
  "longitude" : "81.783859",
  "latitude" : "25.455788",
  "Taluka_Name" : "Allahabad",
  "State_Name" : "Uttar Pradesh",
  "Health_Facility_Name" : "Bhola Ka Pura",
  "Facility_Type" : "Urban Health Centre",
  "District_Name" : "Allahabad ",
  "Block_Name" : "\\N",
  "Address" : "-"
},
{
  "srno" : "5262",
  "pincode" : "211003",
  "longitude" : "81.827581",
  "latitude" : "25.440664",
  "Taluka_Name" : "Allahabad",
  "State_Name" : "Uttar Pradesh",
  "Health_Facility_Name" : "Civil lines",
  "Facility_Type" : "Urban Health Centre",
  "District_Name" : "Allahabad ",
  "Block_Name" : "\\N",
  "Address" : "-"
},
{
  "srno" : "5263",
  "pincode" : "211006",
  "longitude" : "81.881042",
  "latitude" : "25.441271",
  "Taluka_Name" : "Allahabad",
  "State_Name" : "Uttar Pradesh",
  "Health_Facility_Name" : "Dara Ganj 1",
  "Facility_Type" : "Urban Health Centre",
  "District_Name" : "Allahabad ",
  "Block_Name" : "\\N",
  "Address" : "-"
},
{
  "srno" : "5264",
  "pincode" : "211006",
  "longitude" : "81.888501",
  "latitude" : "25.438789",
  "Taluka_Name" : "Allahabad",
  "State_Name" : "Uttar Pradesh",
  "Health_Facility_Name" : "Dara ganj 2",
  "Facility_Type" : "Urban Health Centre",
  "District_Name" : "Allahabad ",
  "Block_Name" : "\\N",
  "Address" : "-"
},
{
  "srno" : "5265",
  "pincode" : "211003",
  "longitude" : "81.833868",
  "latitude" : "25.424955",
  "Taluka_Name" : "Allahabad",
  "State_Name" : "Uttar Pradesh",
  "Health_Facility_Name" : "Dariyabad",
  "Facility_Type" : "Urban Health Centre",
  "District_Name" : "Allahabad ",
  "Block_Name" : "\\N",
  "Address" : "-"
},

{
  "srno" : "5266",
  "pincode" : "211003",
  "longitude" : "81.853902",
  "latitude" : "25.441298",
  "Taluka_Name" : "Allahabad",
  "State_Name" : "Uttar Pradesh",
  "Health_Facility_Name" : "Dharikar Basti",
  "Facility_Type" : "Urban Health Centre",
  "District_Name" : "Allahabad ",
  "Block_Name" : "\\N",
  "Address" : "-"
},
{
  "srno" : "22393",
  "pincode" : "441802",
  "longitude" : "80.0031833",
  "latitude" : "21.0309452",
  "Taluka_Name" : "Sakoli",
  "State_Name" : "Maharashtra",
  "Health_Facility_Name" : "Wadad",
  "Facility_Type" : "SubCentre",
  "District_Name" : "Bhandara",
  "Block_Name" : "Sakoli",
  "Address" : "Walad"
},
{
  "srno" : "22394",
  "pincode" : "441802",
  "longitude" : "80.0716523",
  "latitude" : "21.1455236",
  "Taluka_Name" : "Sakoli",
  "State_Name" : "Maharashtra",
  "Health_Facility_Name" : "Satalwada",
  "Facility_Type" : "SubCentre",
  "District_Name" : "Bhandara",
  "Block_Name" : "Sakoli",
  "Address" : "Satalwada"
},
{
  "srno" : "22395",
  "pincode" : "data not available",
  "longitude" : "74.252709",
  "latitude" : "18.25844",
  "Taluka_Name" : "Bhor",
  "State_Name" : "Maharashtra",
  "Health_Facility_Name" : "Jogwadi",
  "Facility_Type" : "Primary Health Centre",
  "District_Name" : "Pune",
  "Block_Name" : "Bhor",
  "Address" : "Jogwadi"
},
{
  "srno" : "22396",
  "pincode" : "802166",
  "longitude" : "84.582",
  "latitude" : "25.654",
  "Taluka_Name" : "Shahpur",
  "State_Name" : "Bihar",
  "Health_Facility_Name" : "Naragda",
  "Facility_Type" : "SubCentre",
  "District_Name" : "Bhojpur",
  "Block_Name" : "Shahpur",
  "Address" : "data not avalilabe"
},
{
  "srno" : "22397",
  "pincode" : "507204",
  "longitude" : "80.32606602",
  "latitude" : "16.96288969",
  "Taluka_Name" : "Bonakal Mandal",
  "State_Name" : "Telengana",
  "Health_Facility_Name" : "SubCentre, Motamarri",
  "Facility_Type" : "SubCentre",
  "District_Name" : "Khammam District",
  "Block_Name" : "\\N",
  "Address" : "data not avalilabe"
},
{
  "srno" : "22398",
  "pincode" : "247551",
  "longitude" : "77.69615",
  "latitude" : "29.771697",
  "Taluka_Name" : "Deoband",
  "State_Name" : "Uttar Pradesh",
  "Health_Facility_Name" : "Ismailpur",
  "Facility_Type" : "SubCentre",
  "District_Name" : "Saharanpur",
  "Block_Name" : "Nangal",
  "Address" : "Ismailpur"
},
{
  "srno" : "22399",
  "pincode" : "422403",
  "longitude" : "73.57103",
  "latitude" : "19.63571",
  "Taluka_Name" : "Igatpuri",
  "State_Name" : "Maharashtra",
  "Health_Facility_Name" : "Samanere",
  "Facility_Type" : "SubCentre",
  "District_Name" : "Nashik",
  "Block_Name" : "Igatpuri",
  "Address" : "At Post Samnera"
},
{
  "srno" : "22400",
  "pincode" : "416112",
  "longitude" : "74.44",
  "latitude" : "16.74",
  "Taluka_Name" : "Hatkanangle",
  "State_Name" : "Maharashtra",
  "Health_Facility_Name" : "Ambap",
  "Facility_Type" : "Primary Health Centre",
  "District_Name" : "Kolhapur",
  "Block_Name" : "Hatkangale",
  "Address" : "primary health center ambap"
},
{
  "srno" : "22401",
  "pincode" : "444101",
  "longitude" : "77.075256",
  "latitude" : "21.205792",
  "Taluka_Name" : "Akot",
  "State_Name" : "Maharashtra",
  "Health_Facility_Name" : "Popatkhed",
  "Facility_Type" : "SubCentre",
  "District_Name" : "Akola",
  "Block_Name" : "akot",
  "Address" : "Sub  Centre Popatkhed"
},
{
  "srno" : "22402",
  "pincode" : "641012",
  "longitude" : "76.9628655",
  "latitude" : "11.0214127",
  "Taluka_Name" : "Coimbatore South",
  "State_Name" : "Tamil Nadu",
  "Health_Facility_Name" : "PREETHI MEDICAL CENTRE",
  "Facility_Type" : "Others",
  "District_Name" : "Coimbatore",
  "Block_Name" : "COIMBATORE CORPN",
  "Address" : "100 Feet Rd"
},

{
  "srno" : "5267",
  "pincode" : "211004",
  "longitude" : "81.86926",
  "latitude" : "25.477701",
  "Taluka_Name" : "Allahabad",
  "State_Name" : "Uttar Pradesh",
  "Health_Facility_Name" : "Gallabazar",
  "Facility_Type" : "Urban Health Centre",
  "District_Name" : "Allahabad ",
  "Block_Name" : "\\N",
  "Address" : "-"
},
{
  "srno" : "5268",
  "pincode" : "231301",
  "longitude" : "83.03323",
  "latitude" : "25.02145",
  "Taluka_Name" : "Chunar",
  "State_Name" : "Uttar Pradesh",
  "Health_Facility_Name" : "Ahraura",
  "Facility_Type" : "Community Health Center",
  "District_Name" : "Mirzapur",
  "Block_Name" : "Jamalpur",
  "Address" : "Ahraura"
},
{
  "srno" : "5269",
  "pincode" : "227813",
  "longitude" : "81.772377",
  "latitude" : "26.439177",
  "Taluka_Name" : "\\N",
  "State_Name" : "Uttar Pradesh",
  "Health_Facility_Name" : "GAJANPUR",
  "Facility_Type" : "SubCentre",
  "District_Name" : "Amethi",
  "Block_Name" : "MUSAFIR KHANA",
  "Address" : "GAJANPUR"
},
{
  "srno" : "5270",
  "pincode" : "211016",
  "longitude" : "81.808809",
  "latitude" : "25.426057",
  "Taluka_Name" : "Allahabad",
  "State_Name" : "Uttar Pradesh",
  "Health_Facility_Name" : "Goush Nagar",
  "Facility_Type" : "Urban Health Centre",
  "District_Name" : "Allahabad ",
  "Block_Name" : "\\N",
  "Address" : "-"
},
{
  "srno" : "22420",
  "pincode" : "494679",
  "longitude" : "81.12502393",
  "latitude" : "20.08512041",
  "Taluka_Name" : "Antagarh",
  "State_Name" : "Chhattisgarh",
  "Health_Facility_Name" : "SHC Kodagaon",
  "Facility_Type" : "SubCentre",
  "District_Name" : "Kanker",
  "Block_Name" : "ANTAGARH",
  "Address" : "\\N"
},
{
  "srno" : "22406",
  "pincode" : "246275",
  "longitude" : "78.999227",
  "latitude" : "29.915923",
  "Taluka_Name" : "Thailisain",
  "State_Name" : "Uttarakhand",
  "Health_Facility_Name" : "Farsadi SC",
  "Facility_Type" : "SubCentre",
  "District_Name" : "Garhwal",
  "Block_Name" : "Bironkhal",
  "Address" : "data not avalilabe"
},
{
  "srno" : "22407",
  "pincode" : "517408",
  "longitude" : "78.74513",
  "latitude" : "13.19539",
  "Taluka_Name" : "Palamaner Mandal",
  "State_Name" : "Andhra Pradesh",
  "Health_Facility_Name" : "PALAMANER (S)",
  "Facility_Type" : "SubCentre",
  "District_Name" : "Chittoor District",
  "Block_Name" : "\\N",
  "Address" : "data not avalilabe"
},
{
  "srno" : "22408",
  "pincode" : "423301",
  "longitude" : "74.0838",
  "latitude" : "20.3956",
  "Taluka_Name" : "Baglan",
  "State_Name" : "Maharashtra",
  "Health_Facility_Name" : "Virgaon",
  "Facility_Type" : "Primary Health Centre",
  "District_Name" : "Nashik",
  "Block_Name" : "Baglan",
  "Address" : "Primary Helth Center Virgaon"
},

{
  "srno" : "22410",
  "pincode" : "263136",
  "longitude" : "79.71454",
  "latitude" : "29.40345",
  "Taluka_Name" : "Dhari",
  "State_Name" : "Uttarakhand",
  "Health_Facility_Name" : "Dini",
  "Facility_Type" : "SubCentre",
  "District_Name" : "Nainital",
  "Block_Name" : "DHARI",
  "Address" : "Sub Center"
},
{
  "srno" : "22411",
  "pincode" : "143302",
  "longitude" : "74.72153062",
  "latitude" : "31.39300906",
  "Taluka_Name" : "\\N",
  "State_Name" : "Punjab",
  "Health_Facility_Name" : "CHC Sur Singh",
  "Facility_Type" : "Community Health Center",
  "District_Name" : "Tarn Taran",
  "Block_Name" : "Sur Singh Wala",
  "Address" : "Village Sursingh"
},
{
  "srno" : "22412",
  "pincode" : "743456",
  "longitude" : "88.821683",
  "latitude" : "22.525217",
  "Taluka_Name" : "HASNABAD",
  "State_Name" : "West Bengal",
  "Health_Facility_Name" : "D Bhebia SC",
  "Facility_Type" : "SubCentre",
  "District_Name" : "North 24 Parganas",
  "Block_Name" : "HASNABAD",
  "Address" : "VILL+PO- D/BHEBIA p.s- Hasnabad, Dist- north24 parganas"
},
{
  "srno" : "22440",
  "pincode" : "442910",
  "longitude" : "78.8517121",
  "latitude" : "20.3089423",
  "Taluka_Name" : "Warora",
  "State_Name" : "Maharashtra",
  "Health_Facility_Name" : "Madheli",
  "Facility_Type" : "SubCentre",
  "District_Name" : "Chandrapur",
  "Block_Name" : "Warora",
  "Address" : "Subcentre Madheli"
},
{
  "srno" : "22441",
  "pincode" : "382330",
  "longitude" : "72.691981",
  "latitude" : "23.047284",
  "Taluka_Name" : "Daskroi",
  "State_Name" : "Gujarat",
  "Health_Facility_Name" : "Kathwada-2",
  "Facility_Type" : "SubCentre",
  "District_Name" : "AHMEDABAD",
  "Block_Name" : "Dascroi,",
  "Address" : "Sub  Centre Kathvada-2"
},
{
  "srno" : "22442",
  "pincode" : "722137",
  "longitude" : "23.232415",
  "latitude" : "23.232415",
  "Taluka_Name" : "Chhatna",
  "State_Name" : "West Bengal",
  "Health_Facility_Name" : "Kaminbedya SC",
  "Facility_Type" : "SubCentre",
  "District_Name" : "Bankura",
  "Block_Name" : "Chhatna",
  "Address" : "Kaminbaid SC"
},
{
  "srno" : "22443",
  "pincode" : "637019",
  "longitude" : "78.190286",
  "latitude" : "11.265246",
  "Taluka_Name" : "Namakkal",
  "State_Name" : "Tamil Nadu",
  "Health_Facility_Name" : "Marurpatti",
  "Facility_Type" : "SubCentre",
  "District_Name" : "Namakkal   ",
  "Block_Name" : "Namakkal MPTY",
  "Address" : "6/151"
},
{
  "srno" : "22444",
  "pincode" : "496001",
  "longitude" : "83.29351133",
  "latitude" : "21.91070383",
  "Taluka_Name" : "Raigarh",
  "State_Name" : "Chhattisgarh",
  "Health_Facility_Name" : "JAMPALI",
  "Facility_Type" : "SubCentre",
  "District_Name" : "Raigarh",
  "Block_Name" : "RAIGARH",
  "Address" : "SHC Jampali"
},
{
  "srno" : "22445",
  "pincode" : "285121",
  "longitude" : "79.06561",
  "latitude" : "26.19985",
  "Taluka_Name" : "Konch",
  "State_Name" : "Uttar Pradesh",
  "Health_Facility_Name" : "Manpura",
  "Facility_Type" : "SubCentre",
  "District_Name" : "Jalaun ",
  "Block_Name" : "Nadigoan",
  "Address" : "data not avalilabe"
},
{
  "srno" : "22446",
  "pincode" : "431513",
  "longitude" : "77.176756",
  "latitude" : "19.766813",
  "Taluka_Name" : "Hingoli",
  "State_Name" : "Maharashtra",
  "Health_Facility_Name" : "Basamba",
  "Facility_Type" : "SubCentre",
  "District_Name" : "Hingoli *",
  "Block_Name" : "Hingoli",
  "Address" : "SubCentre-Basamba"
},
{
  "srno" : "22447",
  "pincode" : "608701",
  "longitude" : "79.435272",
  "latitude" : "11.349787",
  "Taluka_Name" : "Chidambaram",
  "State_Name" : "Tamil Nadu",
  "Health_Facility_Name" : "Ramapuram",
  "Facility_Type" : "SubCentre",
  "District_Name" : "Cuddalore",
  "Block_Name" : "Keerapalayam",
  "Address" : "DANIDA Building"
},
{
  "srno" : "22448",
  "pincode" : "495119",
  "longitude" : "81.94934833",
  "latitude" : "22.77947666",
  "Taluka_Name" : "Pendra",
  "State_Name" : "Chhattisgarh",
  "Health_Facility_Name" : "SHC Kudri",
  "Facility_Type" : "SubCentre",
  "District_Name" : "Bilaspur",
  "Block_Name" : "\\N",
  "Address" : "\\N"
},
{
  "srno" : "22449",
  "pincode" : "754008",
  "longitude" : "85.41981",
  "latitude" : "20.28029",
  "Taluka_Name" : "Banki  ",
  "State_Name" : "Odisha",
  "Health_Facility_Name" : "Puincha",
  "Facility_Type" : "SubCentre",
  "District_Name" : "Cuttack",
  "Block_Name" : "SUBARNAPUR",
  "Address" : "data not avalilabe"
},
{
  "srno" : "22450",
  "pincode" : "577123",
  "longitude" : "75.3016",
  "latitude" : "13.341",
  "Taluka_Name" : "Koppa ",
  "State_Name" : "Karnataka",
  "Health_Facility_Name" : "MEGUR",
  "Facility_Type" : "SubCentre",
  "District_Name" : "Chikmagalur",
  "Block_Name" : "KOPPA ",
  "Address" : "Subcentre Meguru , Primary Health Centre Jayapura"
},
{
  "srno" : "22451",
  "pincode" : "174101",
  "longitude" : "76.67542294",
  "latitude" : "31.09862131",
  "Taluka_Name" : "Nalagarh",
  "State_Name" : "Himachal Pradesh",
  "Health_Facility_Name" : "Bhogpur SC",
  "Facility_Type" : "SubCentre",
  "District_Name" : "Solan",
  "Block_Name" : "Nalagarh",
  "Address" : "NA"
},

{
  "srno" : "22413",
  "pincode" : "711301",
  "longitude" : "87.989523",
  "latitude" : "22.260627",
  "Taluka_Name" : "Shyampur - I",
  "State_Name" : "West Bengal",
  "Health_Facility_Name" : "Kamalpur BPHC SC",
  "Facility_Type" : "SubCentre",
  "District_Name" : "Howrah",
  "Block_Name" : "Shyampur-I",
  "Address" : "data not avalilabe"
},
{
  "srno" : "22418",
  "pincode" : "761115",
  "longitude" : "84.63779",
  "latitude" : "19.69735",
  "Taluka_Name" : "ASIKA ",
  "State_Name" : "Odisha",
  "Health_Facility_Name" : "BALISIRA CHC",
  "Facility_Type" : "Community Health Center",
  "District_Name" : "Ganjam",
  "Block_Name" : "ASKA",
  "Address" : "CHC BALISIRA"
},
{
  "srno" : "5271",
  "pincode" : "227813",
  "longitude" : "81.739528",
  "latitude" : "26.406064",
  "Taluka_Name" : "\\N",
  "State_Name" : "Uttar Pradesh",
  "Health_Facility_Name" : "KANJAS",
  "Facility_Type" : "SubCentre",
  "District_Name" : "Amethi",
  "Block_Name" : "MUSAFIR KHANA",
  "Address" : "KANJAS"
},
{
  "srno" : "5272",
  "pincode" : "243301",
  "longitude" : "79.151984",
  "latitude" : "28.274962",
  "Taluka_Name" : "Aonla ",
  "State_Name" : "Uttar Pradesh",
  "Health_Facility_Name" : "Aonla",
  "Facility_Type" : "Urban Health Centre",
  "District_Name" : "Bareilly",
  "Block_Name" : "\\N",
  "Address" : "Station Road"
},
{
  "srno" : "5273",
  "pincode" : "227813",
  "longitude" : "81.834867",
  "latitude" : "26.355062",
  "Taluka_Name" : "\\N",
  "State_Name" : "Uttar Pradesh",
  "Health_Facility_Name" : "PHC KASTHUNI",
  "Facility_Type" : "Primary Health Centre",
  "District_Name" : "Amethi",
  "Block_Name" : "MUSAFIR KHANA",
  "Address" : "PHC KASTHUNI"
},
{
  "srno" : "5274",
  "pincode" : "211004",
  "longitude" : "81.874372",
  "latitude" : "25.498814",
  "Taluka_Name" : "Allahabad",
  "State_Name" : "Uttar Pradesh",
  "Health_Facility_Name" : "Govindpur",
  "Facility_Type" : "Urban Health Centre",
  "District_Name" : "Allahabad ",
  "Block_Name" : "\\N",
  "Address" : "-"
},
{
  "srno" : "5275",
  "pincode" : "227813",
  "longitude" : "81.752607",
  "latitude" : "26.414876",
  "Taluka_Name" : "\\N",
  "State_Name" : "Uttar Pradesh",
  "Health_Facility_Name" : "PHC NEWADA",
  "Facility_Type" : "Primary Health Centre",
  "District_Name" : "Amethi",
  "Block_Name" : "MUSAFIR KHANA",
  "Address" : "PHC NEWADA"
},
{
  "srno" : "5276",
  "pincode" : "243201",
  "longitude" : "79.502175",
  "latitude" : "28.78147",
  "Taluka_Name" : "Baheri",
  "State_Name" : "Uttar Pradesh",
  "Health_Facility_Name" : "Baheri",
  "Facility_Type" : "Urban Health Centre",
  "District_Name" : "Bareilly",
  "Block_Name" : "\\N",
  "Address" : "Punjabi Colony"
},
{
  "srno" : "5277",
  "pincode" : "227813",
  "longitude" : "81.799685",
  "latitude" : "26.376531",
  "Taluka_Name" : "\\N",
  "State_Name" : "Uttar Pradesh",
  "Health_Facility_Name" : "PPC MUSAFIRKHANA",
  "Facility_Type" : "Primary Health Centre",
  "District_Name" : "Amethi",
  "Block_Name" : "MUSAFIR KHANA",
  "Address" : "PPC MUSAFIRKHANA"
},
{
  "srno" : "5278",
  "pincode" : "211006",
  "longitude" : "81.816967",
  "latitude" : "25.417429",
  "Taluka_Name" : "Allahabad",
  "State_Name" : "Uttar Pradesh",
  "Health_Facility_Name" : "Karailabag",
  "Facility_Type" : "Urban Health Centre",
  "District_Name" : "Allahabad ",
  "Block_Name" : "\\N",
  "Address" : "-"
},
{
  "srno" : "5279",
  "pincode" : "243503",
  "longitude" : "79.540416",
  "latitude" : "28.20357",
  "Taluka_Name" : "Faridpur ",
  "State_Name" : "Uttar Pradesh",
  "Health_Facility_Name" : "Faridpur",
  "Facility_Type" : "Urban Health Centre",
  "District_Name" : "Bareilly",
  "Block_Name" : "\\N",
  "Address" : "Court Road"
},
{
  "srno" : "5280",
  "pincode" : "227813",
  "longitude" : "81.812126",
  "latitude" : "26.36256",
  "Taluka_Name" : "\\N",
  "State_Name" : "Uttar Pradesh",
  "Health_Facility_Name" : "CHC MUSAFIRKHANA",
  "Facility_Type" : "Community Health Center",
  "District_Name" : "Amethi",
  "Block_Name" : "MUSAFIR KHANA",
  "Address" : "CHC MUSAFIRKHANA"
},
{
  "srno" : "5281",
  "pincode" : "211016",
  "longitude" : "81.823841",
  "latitude" : "25.426603",
  "Taluka_Name" : "Allahabad",
  "State_Name" : "Uttar Pradesh",
  "Health_Facility_Name" : "Karaili",
  "Facility_Type" : "Urban Health Centre",
  "District_Name" : "Allahabad ",
  "Block_Name" : "\\N",
  "Address" : "-"
},
{
  "srno" : "5282",
  "pincode" : "227813",
  "longitude" : "81.742058",
  "latitude" : "26.449113",
  "Taluka_Name" : "\\N",
  "State_Name" : "Uttar Pradesh",
  "Health_Facility_Name" : "NARA ADHANPUR",
  "Facility_Type" : "SubCentre",
  "District_Name" : "Amethi",
  "Block_Name" : "MUSAFIR KHANA",
  "Address" : "NARA ADHANPUR"
},
{
  "srno" : "5283",
  "pincode" : "854202",
  "longitude" : "81.531326",
  "latitude" : "26.818561",
  "Taluka_Name" : "Banmankhi",
  "State_Name" : "Bihar",
  "Health_Facility_Name" : "Maharajganj 2",
  "Facility_Type" : "SubCentre",
  "District_Name" : "Purnia",
  "Block_Name" : "Banmankhi",
  "Address" : "Maharajganj 2"
},
{
  "srno" : "5284",
  "pincode" : "211003",
  "longitude" : "81.838706",
  "latitude" : "25.436759",
  "Taluka_Name" : "Allahabad",
  "State_Name" : "Uttar Pradesh",
  "Health_Facility_Name" : "Keedganj",
  "Facility_Type" : "Urban Health Centre",
  "District_Name" : "Allahabad ",
  "Block_Name" : "\\N",
  "Address" : "-"
},
{
  "srno" : "5285",
  "pincode" : "211008",
  "longitude" : "81.87639",
  "latitude" : "25.37222",
  "Taluka_Name" : "Allahabad",
  "State_Name" : "Uttar Pradesh",
  "Health_Facility_Name" : "Naini",
  "Facility_Type" : "Urban Health Centre",
  "District_Name" : "Allahabad ",
  "Block_Name" : "\\N",
  "Address" : "-"
},
{
  "srno" : "5286",
  "pincode" : "211011",
  "longitude" : "81.792034",
  "latitude" : "25.436581",
  "Taluka_Name" : "Allahabad",
  "State_Name" : "Uttar Pradesh",
  "Health_Facility_Name" : "Rajrooppur",
  "Facility_Type" : "Urban Health Centre",
  "District_Name" : "Allahabad ",
  "Block_Name" : "\\N",
  "Address" : "-"
},
{
  "srno" : "5287",
  "pincode" : "211003",
  "longitude" : "81.831185",
  "latitude" : "25.436272",
  "Taluka_Name" : "Allahabad",
  "State_Name" : "Uttar Pradesh",
  "Health_Facility_Name" : "Rani Mandi",
  "Facility_Type" : "Urban Health Centre",
  "District_Name" : "Allahabad ",
  "Block_Name" : "\\N",
  "Address" : "-"
},
{
  "srno" : "5288",
  "pincode" : "211001",
  "longitude" : "81.825818",
  "latitude" : "25.472288",
  "Taluka_Name" : "Allahabad",
  "State_Name" : "Uttar Pradesh",
  "Health_Facility_Name" : "Sadar Bazar",
  "Facility_Type" : "Urban Health Centre",
  "District_Name" : "Allahabad ",
  "Block_Name" : "\\N",
  "Address" : "-"
},
{
  "srno" : "5289",
  "pincode" : "211001",
  "longitude" : "81.845522",
  "latitude" : "25.445008",
  "Taluka_Name" : "Allahabad",
  "State_Name" : "Uttar Pradesh",
  "Health_Facility_Name" : "SRN Hospital",
  "Facility_Type" : "Urban Health Centre",
  "District_Name" : "Allahabad ",
  "Block_Name" : "\\N",
  "Address" : "-"
},
{
  "srno" : "5290",
  "pincode" : "211011",
  "longitude" : "81.759807",
  "latitude" : "25.451354",
  "Taluka_Name" : "Allahabad",
  "State_Name" : "Uttar Pradesh",
  "Health_Facility_Name" : "Sulem Sarai",
  "Facility_Type" : "Urban Health Centre",
  "District_Name" : "Allahabad ",
  "Block_Name" : "\\N",
  "Address" : "-"
},
{
  "srno" : "5291",
  "pincode" : "211016",
  "longitude" : "81.821161",
  "latitude" : "25.433526",
  "Taluka_Name" : "Allahabad",
  "State_Name" : "Uttar Pradesh",
  "Health_Facility_Name" : "Sultanpur Bhawa",
  "Facility_Type" : "Urban Health Centre",
  "District_Name" : "Allahabad ",
  "Block_Name" : "\\N",
  "Address" : "-"
},
{
  "srno" : "5292",
  "pincode" : "211001",
  "longitude" : "81.846478",
  "latitude" : "25.47252",
  "Taluka_Name" : "Allahabad",
  "State_Name" : "Uttar Pradesh",
  "Health_Facility_Name" : "TB Sapru Hospital",
  "Facility_Type" : "Urban Health Centre",
  "District_Name" : "Allahabad ",
  "Block_Name" : "\\N",
  "Address" : "-"
},
{
  "srno" : "5293",
  "pincode" : "211004",
  "longitude" : "81.853256",
  "latitude" : "25.498962",
  "Taluka_Name" : "Allahabad",
  "State_Name" : "Uttar Pradesh",
  "Health_Facility_Name" : "Teliyarganj",
  "Facility_Type" : "Urban Health Centre",
  "District_Name" : "Allahabad ",
  "Block_Name" : "\\N",
  "Address" : "-"
},
{
  "srno" : "5294",
  "pincode" : "227809",
  "longitude" : "81.657113",
  "latitude" : "26.435352",
  "Taluka_Name" : "\\N",
  "State_Name" : "Uttar Pradesh",
  "Health_Facility_Name" : "ATTRAUNA",
  "Facility_Type" : "SubCentre",
  "District_Name" : "Amethi",
  "Block_Name" : "JAGDISHPUR",
  "Address" : "ATTRAUNA"
},
{
  "srno" : "5295",
  "pincode" : "227809",
  "longitude" : "81.58119",
  "latitude" : "26.405482",
  "Taluka_Name" : "\\N",
  "State_Name" : "Uttar Pradesh",
  "Health_Facility_Name" : "BABUPUR SARYIAN",
  "Facility_Type" : "SubCentre",
  "District_Name" : "Amethi",
  "Block_Name" : "JAGDISHPUR",
  "Address" : "BABUPUR SARYIAN"
},
{
  "srno" : "5296",
  "pincode" : "227809",
  "longitude" : "81.638528",
  "latitude" : "26.422622",
  "Taluka_Name" : "\\N",
  "State_Name" : "Uttar Pradesh",
  "Health_Facility_Name" : "HARIMAU",
  "Facility_Type" : "SubCentre",
  "District_Name" : "Amethi",
  "Block_Name" : "JAGDISHPUR",
  "Address" : "Harimau"
},
{
  "srno" : "5297",
  "pincode" : "271602",
  "longitude" : "82.057912",
  "latitude" : "27.229843",
  "Taluka_Name" : "Gonda ",
  "State_Name" : "Uttar Pradesh",
  "Health_Facility_Name" : "Baijpur",
  "Facility_Type" : "Primary Health Centre",
  "District_Name" : "Gonda",
  "Block_Name" : "Mujhana",
  "Address" : "Baijpur"
},
{
  "srno" : "5298",
  "pincode" : "176323",
  "longitude" : "76.40308444",
  "latitude" : "33.13312708",
  "Taluka_Name" : "\\N",
  "State_Name" : "Himachal Pradesh",
  "Health_Facility_Name" : "Chaloli SC",
  "Facility_Type" : "SubCentre",
  "District_Name" : "Chamba",
  "Block_Name" : "Killar",
  "Address" : "NA"
},
{
  "srno" : "5299",
  "pincode" : "176323",
  "longitude" : "76.34510967",
  "latitude" : "33.12828894",
  "Taluka_Name" : "\\N",
  "State_Name" : "Himachal Pradesh",
  "Health_Facility_Name" : "Luj SC",
  "Facility_Type" : "SubCentre",
  "District_Name" : "Chamba",
  "Block_Name" : "Killar",
  "Address" : "NA"
},
{
  "srno" : "5300",
  "pincode" : "176323",
  "longitude" : "76.44929487",
  "latitude" : "33.1473219",
  "Taluka_Name" : "\\N",
  "State_Name" : "Himachal Pradesh",
  "Health_Facility_Name" : "Sural SC",
  "Facility_Type" : "SubCentre",
  "District_Name" : "Chamba",
  "Block_Name" : "Killar",
  "Address" : "NA"
},
{
  "srno" : "5301",
  "pincode" : "227801",
  "longitude" : "81.592285",
  "latitude" : "26.337392",
  "Taluka_Name" : "\\N",
  "State_Name" : "Uttar Pradesh",
  "Health_Facility_Name" : "SURATGARH",
  "Facility_Type" : "SubCentre",
  "District_Name" : "Amethi",
  "Block_Name" : "JAMO",
  "Address" : "SURATGARH"
},
{
  "srno" : "5302",
  "pincode" : "176323",
  "longitude" : "76.44731593",
  "latitude" : "33.08779835",
  "Taluka_Name" : "\\N",
  "State_Name" : "Himachal Pradesh",
  "Health_Facility_Name" : "Hudan SC",
  "Facility_Type" : "SubCentre",
  "District_Name" : "Chamba",
  "Block_Name" : "Killar",
  "Address" : "NA"
},
{
  "srno" : "5303",
  "pincode" : "227801",
  "longitude" : "81.5715",
  "latitude" : "26.307985",
  "Taluka_Name" : "\\N",
  "State_Name" : "Uttar Pradesh",
  "Health_Facility_Name" : "HARKARANPUR",
  "Facility_Type" : "SubCentre",
  "District_Name" : "Amethi",
  "Block_Name" : "JAMO",
  "Address" : "HARKARANPUR"
},
{
  "srno" : "5304",
  "pincode" : "229309",
  "longitude" : "81.557282",
  "latitude" : "26.363135",
  "Taluka_Name" : "\\N",
  "State_Name" : "Uttar Pradesh",
  "Health_Facility_Name" : "AHURI",
  "Facility_Type" : "SubCentre",
  "District_Name" : "Amethi",
  "Block_Name" : "TILOI",
  "Address" : "AHURI"
},
{
  "srno" : "5305",
  "pincode" : "176323",
  "longitude" : "76.38966326",
  "latitude" : "33.09570087",
  "Taluka_Name" : "\\N",
  "State_Name" : "Himachal Pradesh",
  "Health_Facility_Name" : "Karyas SC",
  "Facility_Type" : "SubCentre",
  "District_Name" : "Chamba",
  "Block_Name" : "Killar",
  "Address" : "NA"
},
{
  "srno" : "5306",
  "pincode" : "176323",
  "longitude" : "76.35404937",
  "latitude" : "33.0834148",
  "Taluka_Name" : "\\N",
  "State_Name" : "Himachal Pradesh",
  "Health_Facility_Name" : "Praigran SC",
  "Facility_Type" : "SubCentre",
  "District_Name" : "Chamba",
  "Block_Name" : "Killar",
  "Address" : "NA"
},
{
  "srno" : "5307",
  "pincode" : "229309",
  "longitude" : "81.406267",
  "latitude" : "26.426313",
  "Taluka_Name" : "\\N",
  "State_Name" : "Uttar Pradesh",
  "Health_Facility_Name" : "AKBARPUR FARSHI",
  "Facility_Type" : "SubCentre",
  "District_Name" : "Amethi",
  "Block_Name" : "TILOI",
  "Address" : "AKBARPUR FARSHI"
},
{
  "srno" : "5308",
  "pincode" : "227801",
  "longitude" : "81.615327",
  "latitude" : "26.287383",
  "Taluka_Name" : "\\N",
  "State_Name" : "Uttar Pradesh",
  "Health_Facility_Name" : "BARAULIYA",
  "Facility_Type" : "SubCentre",
  "District_Name" : "Amethi",
  "Block_Name" : "JAMO",
  "Address" : "BARAULIYA"
},
{
  "srno" : "5309",
  "pincode" : "176323",
  "longitude" : "76.39015786",
  "latitude" : "33.0689321",
  "Taluka_Name" : "\\N",
  "State_Name" : "Himachal Pradesh",
  "Health_Facility_Name" : "Punto SC",
  "Facility_Type" : "SubCentre",
  "District_Name" : "Chamba",
  "Block_Name" : "Killar",
  "Address" : "NA"
},
{
  "srno" : "5310",
  "pincode" : "176323",
  "longitude" : "76.41469589",
  "latitude" : "32.96424496",
  "Taluka_Name" : "\\N",
  "State_Name" : "Himachal Pradesh",
  "Health_Facility_Name" : "Kulal SC",
  "Facility_Type" : "SubCentre",
  "District_Name" : "Chamba",
  "Block_Name" : "Killar",
  "Address" : "NA"
},
{
  "srno" : "5311",
  "pincode" : "227801",
  "longitude" : "81.614928",
  "latitude" : "26.392103",
  "Taluka_Name" : "\\N",
  "State_Name" : "Uttar Pradesh",
  "Health_Facility_Name" : "HARGANV",
  "Facility_Type" : "SubCentre",
  "District_Name" : "Amethi",
  "Block_Name" : "JAMO",
  "Address" : "NEAR JAGDISHPUR JAYAS ROAD"
},
{
  "srno" : "5312",
  "pincode" : "229309",
  "longitude" : "81.416352",
  "latitude" : "26.336173",
  "Taluka_Name" : "\\N",
  "State_Name" : "Uttar Pradesh",
  "Health_Facility_Name" : "ALAIPUR",
  "Facility_Type" : "SubCentre",
  "District_Name" : "Amethi",
  "Block_Name" : "TILOI",
  "Address" : "ALAIPUR"
},
{
  "srno" : "5313",
  "pincode" : "227801",
  "longitude" : "81.701682",
  "latitude" : "26.345842",
  "Taluka_Name" : "\\N",
  "State_Name" : "Uttar Pradesh",
  "Health_Facility_Name" : "BEERIPUR",
  "Facility_Type" : "SubCentre",
  "District_Name" : "Amethi",
  "Block_Name" : "JAMO",
  "Address" : "NEAR NAND MAHAR"
},
{
  "srno" : "5314",
  "pincode" : "229309",
  "longitude" : "81.537845",
  "latitude" : "26.32375",
  "Taluka_Name" : "\\N",
  "State_Name" : "Uttar Pradesh",
  "Health_Facility_Name" : "BERARA",
  "Facility_Type" : "SubCentre",
  "District_Name" : "Amethi",
  "Block_Name" : "TILOI",
  "Address" : "BERARA"
},
{
  "srno" : "5315",
  "pincode" : "227801",
  "longitude" : "81.590743",
  "latitude" : "26.275295",
  "Taluka_Name" : "\\N",
  "State_Name" : "Uttar Pradesh",
  "Health_Facility_Name" : "HARDO",
  "Facility_Type" : "SubCentre",
  "District_Name" : "Amethi",
  "Block_Name" : "JAMO",
  "Address" : "VILLAGE HARDO INTER COLLAGE"
},
{
  "srno" : "5316",
  "pincode" : "229309",
  "longitude" : "81.4132",
  "latitude" : "26.399095",
  "Taluka_Name" : "\\N",
  "State_Name" : "Uttar Pradesh",
  "Health_Facility_Name" : "BIRAJ",
  "Facility_Type" : "SubCentre",
  "District_Name" : "Amethi",
  "Block_Name" : "TILOI",
  "Address" : "BIRAJ"
},
{
  "srno" : "5317",
  "pincode" : "227801",
  "longitude" : "81.593963",
  "latitude" : "26.364937",
  "Taluka_Name" : "\\N",
  "State_Name" : "Uttar Pradesh",
  "Health_Facility_Name" : "KAPASI",
  "Facility_Type" : "SubCentre",
  "District_Name" : "Amethi",
  "Block_Name" : "JAMO",
  "Address" : "KAPASI"
},
{
  "srno" : "5318",
  "pincode" : "229309",
  "longitude" : "81.487178",
  "latitude" : "26.354",
  "Taluka_Name" : "\\N",
  "State_Name" : "Uttar Pradesh",
  "Health_Facility_Name" : "CHETRA",
  "Facility_Type" : "SubCentre",
  "District_Name" : "Amethi",
  "Block_Name" : "TILOI",
  "Address" : "CHETRA"
},
{
  "srno" : "5319",
  "pincode" : "229309",
  "longitude" : "81.52778",
  "latitude" : "26.344292",
  "Taluka_Name" : "\\N",
  "State_Name" : "Uttar Pradesh",
  "Health_Facility_Name" : "DHODHANPUR",
  "Facility_Type" : "SubCentre",
  "District_Name" : "Amethi",
  "Block_Name" : "TILOI",
  "Address" : "DHODHANPUR"
},
{
  "srno" : "5320",
  "pincode" : "227801",
  "longitude" : "81.636018",
  "latitude" : "26.336597",
  "Taluka_Name" : "\\N",
  "State_Name" : "Uttar Pradesh",
  "Health_Facility_Name" : "BALBHADRAPUR",
  "Facility_Type" : "SubCentre",
  "District_Name" : "Amethi",
  "Block_Name" : "JAMO",
  "Address" : "BALBHADRPUR"
},
{
  "srno" : "5321",
  "pincode" : "229309",
  "longitude" : "81.504715",
  "latitude" : "26.361343",
  "Taluka_Name" : "\\N",
  "State_Name" : "Uttar Pradesh",
  "Health_Facility_Name" : "HASWA",
  "Facility_Type" : "SubCentre",
  "District_Name" : "Amethi",
  "Block_Name" : "TILOI",
  "Address" : "HASWA"
},
{
  "srno" : "5322",
  "pincode" : "229309",
  "longitude" : "81.540493",
  "latitude" : "26.376807",
  "Taluka_Name" : "\\N",
  "State_Name" : "Uttar Pradesh",
  "Health_Facility_Name" : "JAMURWA",
  "Facility_Type" : "SubCentre",
  "District_Name" : "Amethi",
  "Block_Name" : "TILOI",
  "Address" : "JAMURWA"
},
{
  "srno" : "5323",
  "pincode" : "229309",
  "longitude" : "81.409762",
  "latitude" : "26.36385",
  "Taluka_Name" : "\\N",
  "State_Name" : "Uttar Pradesh",
  "Health_Facility_Name" : "KOTWA",
  "Facility_Type" : "SubCentre",
  "District_Name" : "Amethi",
  "Block_Name" : "TILOI",
  "Address" : "KOTWA"
},
{
  "srno" : "5324",
  "pincode" : "229309",
  "longitude" : "81.495185",
  "latitude" : "26.4031",
  "Taluka_Name" : "\\N",
  "State_Name" : "Uttar Pradesh",
  "Health_Facility_Name" : "LODHWARIYA",
  "Facility_Type" : "SubCentre",
  "District_Name" : "Amethi",
  "Block_Name" : "TILOI",
  "Address" : "LODHWARIYA"
},
{
  "srno" : "5325",
  "pincode" : "227809",
  "longitude" : "81.585705",
  "latitude" : "26.381362",
  "Taluka_Name" : "\\N",
  "State_Name" : "Uttar Pradesh",
  "Health_Facility_Name" : "DAKHINVARA",
  "Facility_Type" : "SubCentre",
  "District_Name" : "Amethi",
  "Block_Name" : "JAMO",
  "Address" : "DAKHINVARA"
},
{
  "srno" : "5326",
  "pincode" : "741165",
  "longitude" : "88.55388",
  "latitude" : "23.8675",
  "Taluka_Name" : "Tehatta - I",
  "State_Name" : "West Bengal",
  "Health_Facility_Name" : "Nazirpur BPHC",
  "Facility_Type" : "Community Health Center",
  "District_Name" : "Nadia",
  "Block_Name" : "Tehatta-I",
  "Address" : "Nazirpur BPHC"
},
{
  "srno" : "5327",
  "pincode" : "229309",
  "longitude" : "81.47826",
  "latitude" : "26.370253",
  "Taluka_Name" : "\\N",
  "State_Name" : "Uttar Pradesh",
  "Health_Facility_Name" : "MOHANGANJ",
  "Facility_Type" : "SubCentre",
  "District_Name" : "Amethi",
  "Block_Name" : "TILOI",
  "Address" : "MOHANGANJ"
},
{
  "srno" : "5328",
  "pincode" : "229309",
  "longitude" : "81.45056",
  "latitude" : "26.36811",
  "Taluka_Name" : "\\N",
  "State_Name" : "Uttar Pradesh",
  "Health_Facility_Name" : "PAKARGAON",
  "Facility_Type" : "SubCentre",
  "District_Name" : "Amethi",
  "Block_Name" : "TILOI",
  "Address" : "PAKARGAON"
},
{
  "srno" : "5329",
  "pincode" : "227801",
  "longitude" : "81.745345",
  "latitude" : "26.330993",
  "Taluka_Name" : "\\N",
  "State_Name" : "Uttar Pradesh",
  "Health_Facility_Name" : "NAND MAHAR",
  "Facility_Type" : "Primary Health Centre",
  "District_Name" : "Amethi",
  "Block_Name" : "JAMO",
  "Address" : "NAND MAHAR"
},
{
  "srno" : "5330",
  "pincode" : "229309",
  "longitude" : "81.453462",
  "latitude" : "26.358605",
  "Taluka_Name" : "\\N",
  "State_Name" : "Uttar Pradesh",
  "Health_Facility_Name" : "SATWA",
  "Facility_Type" : "SubCentre",
  "District_Name" : "Amethi",
  "Block_Name" : "TILOI",
  "Address" : "SATWA"
},
{
  "srno" : "5331",
  "pincode" : "227801",
  "longitude" : "81.711803",
  "latitude" : "26.341055",
  "Taluka_Name" : "\\N",
  "State_Name" : "Uttar Pradesh",
  "Health_Facility_Name" : "SIRKHIRI",
  "Facility_Type" : "SubCentre",
  "District_Name" : "Amethi",
  "Block_Name" : "JAMO",
  "Address" : "SIRKHIRI"
},
{
  "srno" : "5332",
  "pincode" : "229309",
  "longitude" : "81.415523",
  "latitude" : "26.455047",
  "Taluka_Name" : "\\N",
  "State_Name" : "Uttar Pradesh",
  "Health_Facility_Name" : "SEMRAUTA",
  "Facility_Type" : "SubCentre",
  "District_Name" : "Amethi",
  "Block_Name" : "TILOI",
  "Address" : "SEMRAUTA"
},
{
  "srno" : "5333",
  "pincode" : "229309",
  "longitude" : "81.518865",
  "latitude" : "26.31583",
  "Taluka_Name" : "\\N",
  "State_Name" : "Uttar Pradesh",
  "Health_Facility_Name" : "SHAHMAU",
  "Facility_Type" : "SubCentre",
  "District_Name" : "Amethi",
  "Block_Name" : "TILOI",
  "Address" : "SHAHMAU"
},
{
  "srno" : "5334",
  "pincode" : "227801",
  "longitude" : "81.63518",
  "latitude" : "26.3125",
  "Taluka_Name" : "\\N",
  "State_Name" : "Uttar Pradesh",
  "Health_Facility_Name" : "RAMGHARI",
  "Facility_Type" : "SubCentre",
  "District_Name" : "Amethi",
  "Block_Name" : "JAMO",
  "Address" : "RAMGHARI"
},
{
  "srno" : "5335",
  "pincode" : "845437",
  "longitude" : "84.79454041",
  "latitude" : "26.34265281",
  "Taluka_Name" : "Kotwa",
  "State_Name" : "Bihar",
  "Health_Facility_Name" : "APHC Ahiraulia",
  "Facility_Type" : "Primary Health Centre",
  "District_Name" : "Purba Champaran",
  "Block_Name" : "kotwa",
  "Address" : "Ahiraulia"
},
{
  "srno" : "5336",
  "pincode" : "229309",
  "longitude" : "81.53424",
  "latitude" : "26.403213",
  "Taluka_Name" : "\\N",
  "State_Name" : "Uttar Pradesh",
  "Health_Facility_Name" : "SHANKARGANJ",
  "Facility_Type" : "SubCentre",
  "District_Name" : "Amethi",
  "Block_Name" : "TILOI",
  "Address" : "SHANKARGANJ"
},
{
  "srno" : "5337",
  "pincode" : "227801",
  "longitude" : "81.678267",
  "latitude" : "26.33506",
  "Taluka_Name" : "\\N",
  "State_Name" : "Uttar Pradesh",
  "Health_Facility_Name" : "SARME",
  "Facility_Type" : "SubCentre",
  "District_Name" : "Amethi",
  "Block_Name" : "JAMO",
  "Address" : "SARME"
},
{
  "srno" : "5338",
  "pincode" : "229309",
  "longitude" : "81.4621",
  "latitude" : "26.335377",
  "Taluka_Name" : "\\N",
  "State_Name" : "Uttar Pradesh",
  "Health_Facility_Name" : "BARKOT",
  "Facility_Type" : "SubCentre",
  "District_Name" : "Amethi",
  "Block_Name" : "TILOI",
  "Address" : "BARKOT"
},
{
  "srno" : "5339",
  "pincode" : "227801",
  "longitude" : "81.732793",
  "latitude" : "26.340518",
  "Taluka_Name" : "\\N",
  "State_Name" : "Uttar Pradesh",
  "Health_Facility_Name" : "MAYAS",
  "Facility_Type" : "SubCentre",
  "District_Name" : "Amethi",
  "Block_Name" : "JAMO",
  "Address" : "MAYAS"
},
{
  "srno" : "5340",
  "pincode" : "227801",
  "longitude" : "81.66066",
  "latitude" : "26.337435",
  "Taluka_Name" : "\\N",
  "State_Name" : "Uttar Pradesh",
  "Health_Facility_Name" : "BHOYE",
  "Facility_Type" : "SubCentre",
  "District_Name" : "Amethi",
  "Block_Name" : "JAMO",
  "Address" : "BHOYE"
},
{
  "srno" : "5341",
  "pincode" : "229309",
  "longitude" : "81.407428",
  "latitude" : "26.333132",
  "Taluka_Name" : "\\N",
  "State_Name" : "Uttar Pradesh",
  "Health_Facility_Name" : "ALAIPUR",
  "Facility_Type" : "Primary Health Centre",
  "District_Name" : "Amethi",
  "Block_Name" : "TILOI",
  "Address" : "ALAIPUR"
},
{
  "srno" : "5342",
  "pincode" : "229309",
  "longitude" : "81.519948",
  "latitude" : "26.315428",
  "Taluka_Name" : "\\N",
  "State_Name" : "Uttar Pradesh",
  "Health_Facility_Name" : "SHAHMAU",
  "Facility_Type" : "Primary Health Centre",
  "District_Name" : "Amethi",
  "Block_Name" : "TILOI",
  "Address" : "SHAHMAU"
},
{
  "srno" : "5343",
  "pincode" : "229309",
  "longitude" : "81.46978",
  "latitude" : "26.393082",
  "Taluka_Name" : "\\N",
  "State_Name" : "Uttar Pradesh",
  "Health_Facility_Name" : "TILOI",
  "Facility_Type" : "Community Health Center",
  "District_Name" : "Amethi",
  "Block_Name" : "TILOI",
  "Address" : "TILOI"
},
{
  "srno" : "5344",
  "pincode" : "227801",
  "longitude" : "81.589805",
  "latitude" : "26.276018",
  "Taluka_Name" : "\\N",
  "State_Name" : "Uttar Pradesh",
  "Health_Facility_Name" : "HARDO",
  "Facility_Type" : "Primary Health Centre",
  "District_Name" : "Amethi",
  "Block_Name" : "JAMO",
  "Address" : "HARDO"
},
{
  "srno" : "7650",
  "pincode" : "440009",
  "longitude" : "79.054831",
  "latitude" : "21.073505",
  "Taluka_Name" : "\\N",
  "State_Name" : "Maharashtra",
  "Health_Facility_Name" : "Super speciality Hospital",
  "Facility_Type" : "District Hospital",
  "District_Name" : "Nagpur",
  "Block_Name" : "\\N",
  "Address" : "Super speciality Hospital"
},

{
  "srno" : "7653",
  "pincode" : "440009",
  "longitude" : "79.054831",
  "latitude" : "21.073505",
  "Taluka_Name" : "Nagpur (Urban)",
  "State_Name" : "Maharashtra",
  "Health_Facility_Name" : "Super speciality Hospital",
  "Facility_Type" : "District Hospital",
  "District_Name" : "Nagpur",
  "Block_Name" : "\\N",
  "Address" : "Super speciality Hospital"
},
{
  "srno" : "7660",
  "pincode" : "440026",
  "longitude" : "79.088155",
  "latitude" : "21.1458",
  "Taluka_Name" : "Nagpur (Urban)",
  "State_Name" : "Maharashtra",
  "Health_Facility_Name" : "dr. babasaheb ambedkar hospital and research center nagpur",
  "Facility_Type" : "District Hospital",
  "District_Name" : "Nagpur",
  "Block_Name" : "\\N",
  "Address" : "dr. babasaheb ambedkar hospital and research center nagpur"
},
{
  "srno" : "7661",
  "pincode" : "440010",
  "longitude" : "79.053912",
  "latitude" : "21.133255",
  "Taluka_Name" : "Nagpur (Urban)",
  "State_Name" : "Maharashtra",
  "Health_Facility_Name" : "Indira gandhi rugnalaya nagpur",
  "Facility_Type" : "District Hospital",
  "District_Name" : "Nagpur",
  "Block_Name" : "\\N",
  "Address" : "INDIRA GANDHI RUGNALAYA"
},
{
  "srno" : "7662",
  "pincode" : "441107",
  "longitude" : "78.933404",
  "latitude" : "21.361313",
  "Taluka_Name" : "Savner",
  "State_Name" : "Maharashtra",
  "Health_Facility_Name" : "Saoner MCL",
  "Facility_Type" : "Urban Health Centre",
  "District_Name" : "Nagpur",
  "Block_Name" : "Savner",
  "Address" : "Saoner"
},
{
  "srno" : "10989",
  "pincode" : "441210",
  "longitude" : "79.172974",
  "latitude" : "20.67519",
  "Taluka_Name" : "Umred",
  "State_Name" : "Maharashtra",
  "Health_Facility_Name" : "Sirsi",
  "Facility_Type" : "SubCentre",
  "District_Name" : "Nagpur",
  "Block_Name" : "Umred",
  "Address" : "SC Sirsi"
},
{
  "srno" : "11303",
  "pincode" : "441106",
  "longitude" : "79.92269",
  "latitude" : "21.614295",
  "Taluka_Name" : "Ramtek",
  "State_Name" : "Maharashtra",
  "Health_Facility_Name" : "Guguldoh",
  "Facility_Type" : "SubCentre",
  "District_Name" : "Nagpur",
  "Block_Name" : "Ramtek",
  "Address" : "SubCenter Gugguldoh"
},
{
  "srno" : "12674",
  "pincode" : "data not available",
  "longitude" : "79.0881546",
  "latitude" : "21.1458004",
  "Taluka_Name" : "Nagpur (Urban)",
  "State_Name" : "Maharashtra",
  "Health_Facility_Name" : "Mahal Diagnostic Centre",
  "Facility_Type" : "Urban Health Posts",
  "District_Name" : "Nagpur",
  "Block_Name" : "\\N",
  "Address" : "Mahal nagpur"
},
{
  "srno" : "12117",
  "pincode" : "441501",
  "longitude" : "78.917542",
  "latitude" : "21.235622",
  "Taluka_Name" : "Kalameshwar",
  "State_Name" : "Maharashtra",
  "Health_Facility_Name" : "RH Kalmeshwar",
  "Facility_Type" : "Community Health Center",
  "District_Name" : "Nagpur",
  "Block_Name" : "Kalmeshwar",
  "Address" : "Rural Hospital, Kalmeshwr"
},
{
  "srno" : "12740",
  "pincode" : "441104",
  "longitude" : "79.333649",
  "latitude" : "21.120374",
  "Taluka_Name" : "Kamptee",
  "State_Name" : "Maharashtra",
  "Health_Facility_Name" : "Wadoda",
  "Facility_Type" : "SubCentre",
  "District_Name" : "Nagpur",
  "Block_Name" : "Kamptee",
  "Address" : "SC Wadoda"
},
{
  "srno" : "14676",
  "pincode" : "440024",
  "longitude" : "79.13792",
  "latitude" : "21.107076",
  "Taluka_Name" : "Nagpur (Urban)",
  "State_Name" : "Maharashtra",
  "Health_Facility_Name" : "Dighori UPHC",
  "Facility_Type" : "Urban Health Posts",
  "District_Name" : "Nagpur",
  "Block_Name" : "\\N",
  "Address" : "Dighori New HP Center"
},
{
  "srno" : "14782",
  "pincode" : "441501",
  "longitude" : "78.922374",
  "latitude" : "21.233711",
  "Taluka_Name" : "Kalameshwar",
  "State_Name" : "Maharashtra",
  "Health_Facility_Name" : "Kalambi",
  "Facility_Type" : "SubCentre",
  "District_Name" : "Nagpur",
  "Block_Name" : "Kalmeshwar",
  "Address" : "Mata Va Balsangopan Kendra Kalambi"
},
{
  "srno" : "15666",
  "pincode" : "441107",
  "longitude" : "78.93951",
  "latitude" : "21.40513",
  "Taluka_Name" : "Savner",
  "State_Name" : "Maharashtra",
  "Health_Facility_Name" : "Ajani",
  "Facility_Type" : "SubCentre",
  "District_Name" : "Nagpur",
  "Block_Name" : "Savner",
  "Address" : "Sub Center Ajani"
},
{
  "srno" : "16291",
  "pincode" : "441306",
  "longitude" : "78.632781",
  "latitude" : "21.398414",
  "Taluka_Name" : "Narkhed",
  "State_Name" : "Maharashtra",
  "Health_Facility_Name" : "Sawargaon",
  "Facility_Type" : "Primary Health Centre",
  "District_Name" : "Nagpur",
  "Block_Name" : "Narkhed",
  "Address" : "PHC Sawargaon"
},
{
  "srno" : "16454",
  "pincode" : "441002",
  "longitude" : "79.246881",
  "latitude" : "21.10386",
  "Taluka_Name" : "Kamptee",
  "State_Name" : "Maharashtra",
  "Health_Facility_Name" : "Khasada",
  "Facility_Type" : "SubCentre",
  "District_Name" : "Nagpur",
  "Block_Name" : "Kamptee",
  "Address" : "SC Kasala"
},
{
  "srno" : "16615",
  "pincode" : "440023",
  "longitude" : "78.744078",
  "latitude" : "21.120166",
  "Taluka_Name" : "Nagpur (Rural)",
  "State_Name" : "Maharashtra",
  "Health_Facility_Name" : "Shiva",
  "Facility_Type" : "SubCentre",
  "District_Name" : "Nagpur",
  "Block_Name" : "Nagpur (rural)",
  "Address" : "Mata Va Balsangopan Kendra Shiva"
},
{
  "srno" : "16933",
  "pincode" : "441101",
  "longitude" : "79.0353",
  "latitude" : "21.41823",
  "Taluka_Name" : "Savner",
  "State_Name" : "Maharashtra",
  "Health_Facility_Name" : "Kothurna",
  "Facility_Type" : "SubCentre",
  "District_Name" : "Nagpur",
  "Block_Name" : "Savner",
  "Address" : "Sub Center Kothurana"
},
{
  "srno" : "17075",
  "pincode" : "441111",
  "longitude" : "79.0685998",
  "latitude" : "21.2114824",
  "Taluka_Name" : "Kamptee",
  "State_Name" : "Maharashtra",
  "Health_Facility_Name" : "Godhni Railway",
  "Facility_Type" : "SubCentre",
  "District_Name" : "Nagpur",
  "Block_Name" : "Kamptee",
  "Address" : "SC Godhani Railway"
},
{
  "srno" : "17544",
  "pincode" : "441106",
  "longitude" : "79.92269",
  "latitude" : "21.614295",
  "Taluka_Name" : "Ramtek",
  "State_Name" : "Maharashtra",
  "Health_Facility_Name" : "Bhandarbodi",
  "Facility_Type" : "SubCentre",
  "District_Name" : "Nagpur",
  "Block_Name" : "Ramtek",
  "Address" : "SubCenter Bhandarbodi"
},
{
  "srno" : "17716",
  "pincode" : "441114",
  "longitude" : "78.947067",
  "latitude" : "20.905003",
  "Taluka_Name" : "Hingna",
  "State_Name" : "Maharashtra",
  "Health_Facility_Name" : "Kotewada",
  "Facility_Type" : "SubCentre",
  "District_Name" : "Nagpur",
  "Block_Name" : "Hingana",
  "Address" : "data not avalilabe"
},
{
  "srno" : "18632",
  "pincode" : "441122",
  "longitude" : "78.947067",
  "latitude" : "20.905003",
  "Taluka_Name" : "Hingna",
  "State_Name" : "Maharashtra",
  "Health_Facility_Name" : "Takalghat",
  "Facility_Type" : "Primary Health Centre",
  "District_Name" : "Nagpur",
  "Block_Name" : "Hingana",
  "Address" : "PHC Takalghat"
},
{
  "srno" : "18764",
  "pincode" : "441304",
  "longitude" : "78.474655",
  "latitude" : "21.408327",
  "Taluka_Name" : "Narkhed",
  "State_Name" : "Maharashtra",
  "Health_Facility_Name" : "Khairgaon",
  "Facility_Type" : "SubCentre",
  "District_Name" : "Nagpur",
  "Block_Name" : "Narkhed",
  "Address" : "Subcenter Khairgaon"
},
{
  "srno" : "20378",
  "pincode" : "440026",
  "longitude" : "79.110743",
  "latitude" : "21.189093",
  "Taluka_Name" : "Nagpur (Urban)",
  "State_Name" : "Maharashtra",
  "Health_Facility_Name" : "Kapil Nagar UPHC",
  "Facility_Type" : "Urban Health Posts",
  "District_Name" : "Nagpur",
  "Block_Name" : "\\N",
  "Address" : "Kapil Nagar"
},
{
  "srno" : "20859",
  "pincode" : "441210",
  "longitude" : "79.513269",
  "latitude" : "20.946112",
  "Taluka_Name" : "Kuhi",
  "State_Name" : "Maharashtra",
  "Health_Facility_Name" : "Pachkhedi (Ga)",
  "Facility_Type" : "SubCentre",
  "District_Name" : "Nagpur",
  "Block_Name" : "Kuhi",
  "Address" : "Subcenter Pachakhedi (Ga)"
},
{
  "srno" : "5345",
  "pincode" : "227801",
  "longitude" : "81.66044",
  "latitude" : "26.386468",
  "Taluka_Name" : "\\N",
  "State_Name" : "Uttar Pradesh",
  "Health_Facility_Name" : "RAMPUR CHAUDHARI",
  "Facility_Type" : "SubCentre",
  "District_Name" : "Amethi",
  "Block_Name" : "JAMO",
  "Address" : "RAMPUR CHAUDHARI"
},
{
  "srno" : "5346",
  "pincode" : "227801",
  "longitude" : "81.69987",
  "latitude" : "26.36633",
  "Taluka_Name" : "\\N",
  "State_Name" : "Uttar Pradesh",
  "Health_Facility_Name" : "RESI",
  "Facility_Type" : "SubCentre",
  "District_Name" : "Amethi",
  "Block_Name" : "JAMO",
  "Address" : "RESI"
},
{
  "srno" : "20",
  "pincode" : "612001",
  "longitude" : "79.385643",
  "latitude" : "10.96929",
  "Taluka_Name" : "Kumbakonam",
  "State_Name" : "Tamil Nadu",
  "Health_Facility_Name" : "Kumbakonam",
  "Facility_Type" : "District Hospital",
  "District_Name" : "Thanjavur",
  "Block_Name" : "Kumbakonam MPTY",
  "Address" : "No. 123, Dist Hqrs Hospital,"
},
{
  "srno" : "21",
  "pincode" : "614404",
  "longitude" : "79.41564",
  "latitude" : "10.7700535",
  "Taluka_Name" : "Mannargudi",
  "State_Name" : "Tamil Nadu",
  "Health_Facility_Name" : "NEEDAMANGALAM",
  "Facility_Type" : "Sub-District Hospital",
  "District_Name" : "Thiruvarur",
  "Block_Name" : "Needamangalam",
  "Address" : "Government Hospital"
},
{
  "srno" : "22",
  "pincode" : "612601",
  "longitude" : "79.478826",
  "latitude" : "10.858903",
  "Taluka_Name" : "Kodavasal",
  "State_Name" : "Tamil Nadu",
  "Health_Facility_Name" : "KODAVASAL",
  "Facility_Type" : "Sub-District Hospital",
  "District_Name" : "Thiruvarur",
  "Block_Name" : "Kodavasal",
  "Address" : "Govt Hospital"
},
{
  "srno" : "23",
  "pincode" : "612804",
  "longitude" : "79.393221",
  "latitude" : "10.888702",
  "Taluka_Name" : "Valangaiman",
  "State_Name" : "Tamil Nadu",
  "Health_Facility_Name" : "VALANGAIMAN",
  "Facility_Type" : "Sub-District Hospital",
  "District_Name" : "Thiruvarur",
  "Block_Name" : "Valangaiman",
  "Address" : "GH Building"
},
{
  "srno" : "24",
  "pincode" : "610105",
  "longitude" : "79.613713",
  "latitude" : "10.880219",
  "Taluka_Name" : "Nannilam",
  "State_Name" : "Tamil Nadu",
  "Health_Facility_Name" : "NANNILAM",
  "Facility_Type" : "Sub-District Hospital",
  "District_Name" : "Thiruvarur",
  "Block_Name" : "Nannilam",
  "Address" : "Government Hospital"
},
{
  "srno" : "25",
  "pincode" : "632113",
  "longitude" : "79.094337",
  "latitude" : "12.812885",
  "Taluka_Name" : "Vellore",
  "State_Name" : "Tamil Nadu",
  "Health_Facility_Name" : "Sholavaram",
  "Facility_Type" : "Primary Health Centre",
  "District_Name" : "Vellore",
  "Block_Name" : "Kaniyambadi",
  "Address" : "PHC Sholavaram"
},
{
  "srno" : "26",
  "pincode" : "623704",
  "longitude" : "78.54408",
  "latitude" : "9.3044656",
  "Taluka_Name" : "Kadaladi",
  "State_Name" : "Tamil Nadu",
  "Health_Facility_Name" : "MELASIRUPOTHU",
  "Facility_Type" : "Primary Health Centre",
  "District_Name" : "Ramanathapuram",
  "Block_Name" : "Kadaladi",
  "Address" : "Primary Health Centre"
},
{
  "srno" : "27",
  "pincode" : "494334",
  "longitude" : "81.49559926",
  "latitude" : "20.26427408",
  "Taluka_Name" : "Kanker",
  "State_Name" : "Chhattisgarh",
  "Health_Facility_Name" : "DH Kanker",
  "Facility_Type" : "District Hospital",
  "District_Name" : "Kanker",
  "Block_Name" : "KANKER",
  "Address" : "Komal Dev Disstrict Hospital"
},
{
  "srno" : "28",
  "pincode" : "494776",
  "longitude" : "80.62777387",
  "latitude" : "20.03317954",
  "Taluka_Name" : "Pakhanjur",
  "State_Name" : "Chhattisgarh",
  "Health_Facility_Name" : "CH Pakhanjure",
  "Facility_Type" : "Sub-District Hospital",
  "District_Name" : "Kanker",
  "Block_Name" : "KOYALIBEDA",
  "Address" : "Civil Hospital"
},
{
  "srno" : "29",
  "pincode" : "638501",
  "longitude" : "77.580857",
  "latitude" : "11.544983",
  "Taluka_Name" : "Bhavani",
  "State_Name" : "Tamil Nadu",
  "Health_Facility_Name" : "Brammadesam",
  "Facility_Type" : "SubCentre",
  "District_Name" : "Erode",
  "Block_Name" : "Andhiyur",
  "Address" : "Primary Health Centre-Brammadesam"
},
{
  "srno" : "30",
  "pincode" : "638502",
  "longitude" : "77.532567",
  "latitude" : "11.503412",
  "Taluka_Name" : "Bhavani",
  "State_Name" : "Tamil Nadu",
  "Health_Facility_Name" : "Keelvani",
  "Facility_Type" : "SubCentre",
  "District_Name" : "Erode",
  "Block_Name" : "Andhiyur",
  "Address" : "Health Sub Centre-Keelvani"
},
{
  "srno" : "31",
  "pincode" : "638051",
  "longitude" : "77.6018",
  "latitude" : "11.1629",
  "Taluka_Name" : "Perundurai",
  "State_Name" : "Tamil Nadu",
  "Health_Facility_Name" : "CHENNIMALAI",
  "Facility_Type" : "Community Health Center",
  "District_Name" : "Erode",
  "Block_Name" : "Chennimalai",
  "Address" : "177"
},
{
  "srno" : "32",
  "pincode" : "321203",
  "longitude" : "77.490145",
  "latitude" : "27.215604",
  "Taluka_Name" : "Deeg",
  "State_Name" : "Rajasthan",
  "Health_Facility_Name" : "Pasta",
  "Facility_Type" : "SubCentre",
  "District_Name" : "Bharatpur ",
  "Block_Name" : "Deeg",
  "Address" : "\\N"
},
{
  "srno" : "33",
  "pincode" : "638501",
  "longitude" : "77.612631",
  "latitude" : "11.54818",
  "Taluka_Name" : "Bhavani",
  "State_Name" : "Tamil Nadu",
  "Health_Facility_Name" : "A.Sembulichampalaaym",
  "Facility_Type" : "SubCentre",
  "District_Name" : "Erode",
  "Block_Name" : "Andhiyur",
  "Address" : "Primary Health Centre-A.Sembulichampalayam"
},
{
  "srno" : "34",
  "pincode" : "641018",
  "longitude" : "77.023219",
  "latitude" : "11.030322",
  "Taluka_Name" : "Coimbatore South",
  "State_Name" : "Tamil Nadu",
  "Health_Facility_Name" : "COIMBATORE MEDL COLLEGE HOSP MCH",
  "Facility_Type" : "Medical Colleges Hospital",
  "District_Name" : "Coimbatore",
  "Block_Name" : "Madukkarai",
  "Address" : "CMCH Hospital"
},
{
  "srno" : "35",
  "pincode" : "642001",
  "longitude" : "77.0106693",
  "latitude" : "10.6572737",
  "Taluka_Name" : "Pollachi",
  "State_Name" : "Tamil Nadu",
  "Health_Facility_Name" : "POLLACHI",
  "Facility_Type" : "District Hospital",
  "District_Name" : "Coimbatore",
  "Block_Name" : "Pollachi (S)",
  "Address" : "Govt. Hospital  Pollachi"
},
{
  "srno" : "36",
  "pincode" : "303901",
  "longitude" : "76.010177",
  "latitude" : "26.50769",
  "Taluka_Name" : "Chaksu",
  "State_Name" : "Rajasthan",
  "Health_Facility_Name" : "Sanwalila",
  "Facility_Type" : "SubCentre",
  "District_Name" : "Jaipur ",
  "Block_Name" : "Chaksu",
  "Address" : "Sanwalila"
},
{
  "srno" : "37",
  "pincode" : "641301",
  "longitude" : "76.941483",
  "latitude" : "11.289725",
  "Taluka_Name" : "Mettupalayam",
  "State_Name" : "Tamil Nadu",
  "Health_Facility_Name" : "METTUPALAYAM",
  "Facility_Type" : "Sub-District Hospital",
  "District_Name" : "Coimbatore",
  "Block_Name" : "Karamadai",
  "Address" : "120"
},
{
  "srno" : "38",
  "pincode" : "642127",
  "longitude" : "76.9578",
  "latitude" : "10.3298",
  "Taluka_Name" : "Valparai",
  "State_Name" : "Tamil Nadu",
  "Health_Facility_Name" : "VALPARAI",
  "Facility_Type" : "Sub-District Hospital",
  "District_Name" : "Coimbatore",
  "Block_Name" : "Anamalai",
  "Address" : "KUMARAN ROAD"
},
{
  "srno" : "39",
  "pincode" : "641109",
  "longitude" : "76.842",
  "latitude" : "10.9913",
  "Taluka_Name" : "Coimbatore South",
  "State_Name" : "Tamil Nadu",
  "Health_Facility_Name" : "THONDAMUTHUR",
  "Facility_Type" : "Sub-District Hospital",
  "District_Name" : "Coimbatore",
  "Block_Name" : "Thondamuthur",
  "Address" : "--"
},
{
  "srno" : "40",
  "pincode" : "641103",
  "longitude" : "76.988567",
  "latitude" : "11.239862",
  "Taluka_Name" : "Mettupalayam",
  "State_Name" : "Tamil Nadu",
  "Health_Facility_Name" : "Colonypudur",
  "Facility_Type" : "SubCentre",
  "District_Name" : "Coimbatore",
  "Block_Name" : "Karamadai",
  "Address" : "Aug-46"
},
{
  "srno" : "41",
  "pincode" : "641301",
  "longitude" : "76.82028",
  "latitude" : "11.168077",
  "Taluka_Name" : "Mettupalayam",
  "State_Name" : "Tamil Nadu",
  "Health_Facility_Name" : "THOLAMPALAYAM",
  "Facility_Type" : "SubCentre",
  "District_Name" : "Coimbatore",
  "Block_Name" : "Karamadai",
  "Address" : "2/A156"
},
{
  "srno" : "42",
  "pincode" : "636706",
  "longitude" : "78.301667",
  "latitude" : "12.154444",
  "Taluka_Name" : "Dharmapuri",
  "State_Name" : "Tamil Nadu",
  "Health_Facility_Name" : "K N HALLI",
  "Facility_Type" : "Primary Health Centre",
  "District_Name" : "Dharmapuri",
  "Block_Name" : "Dharmapuri MPTY",
  "Address" : "K.N.HALLI PHC"
},
{
  "srno" : "43",
  "pincode" : "636704",
  "longitude" : "77.97221",
  "latitude" : "12.127355",
  "Taluka_Name" : "Dharmapuri",
  "State_Name" : "Tamil Nadu",
  "Health_Facility_Name" : "Rajathoppu",
  "Facility_Type" : "Primary Health Centre",
  "District_Name" : "Dharmapuri",
  "Block_Name" : "Dharmapuri MPTY",
  "Address" : "Rajathoppu PHC"
},
{
  "srno" : "44",
  "pincode" : "306104",
  "longitude" : "73.603668",
  "latitude" : "25.916749",
  "Taluka_Name" : "Sojat",
  "State_Name" : "Rajasthan",
  "Health_Facility_Name" : "Dheenawas",
  "Facility_Type" : "SubCentre",
  "District_Name" : "Pali ",
  "Block_Name" : "Sojat",
  "Address" : "SUB CENTER DHEENAWAS"
},
{
  "srno" : "45",
  "pincode" : "636903",
  "longitude" : "78.4548",
  "latitude" : "12.0111",
  "Taluka_Name" : "Harur",
  "State_Name" : "Tamil Nadu",
  "Health_Facility_Name" : "Chinnankuppam",
  "Facility_Type" : "Primary Health Centre",
  "District_Name" : "Dharmapuri",
  "Block_Name" : "Harur",
  "Address" : "Chinnankuppam"
},
{
  "srno" : "46",
  "pincode" : "636809",
  "longitude" : "78.008883",
  "latitude" : "12.239766",
  "Taluka_Name" : "Pennagaram",
  "State_Name" : "Tamil Nadu",
  "Health_Facility_Name" : "Pikkili",
  "Facility_Type" : "Primary Health Centre",
  "District_Name" : "Dharmapuri",
  "Block_Name" : "Pennagaram",
  "Address" : "HSC Pakka Building"
},
{
  "srno" : "47",
  "pincode" : "636903",
  "longitude" : "78.585822",
  "latitude" : "11.883349",
  "Taluka_Name" : "Harur",
  "State_Name" : "Tamil Nadu",
  "Health_Facility_Name" : "SITLING",
  "Facility_Type" : "Primary Health Centre",
  "District_Name" : "Dharmapuri",
  "Block_Name" : "Harur",
  "Address" : "sittling phc building"
},
{
  "srno" : "48",
  "pincode" : "636810",
  "longitude" : "77.834074",
  "latitude" : "11.946592",
  "Taluka_Name" : "Pennagaram",
  "State_Name" : "Tamil Nadu",
  "Health_Facility_Name" : "Chellamudi",
  "Facility_Type" : "Primary Health Centre",
  "District_Name" : "Dharmapuri",
  "Block_Name" : "Pennagaram",
  "Address" : "PHC Pakka Building"
},
{
  "srno" : "49",
  "pincode" : "636810",
  "longitude" : "77.778123",
  "latitude" : "12.118312",
  "Taluka_Name" : "Pennagaram",
  "State_Name" : "Tamil Nadu",
  "Health_Facility_Name" : "Hogenakkal",
  "Facility_Type" : "Primary Health Centre",
  "District_Name" : "Dharmapuri",
  "Block_Name" : "Pennagaram",
  "Address" : "PHC Pakka Building"
},
{
  "srno" : "50",
  "pincode" : "636906",
  "longitude" : "78.676004",
  "latitude" : "12.049005",
  "Taluka_Name" : "Harur",
  "State_Name" : "Tamil Nadu",
  "Health_Facility_Name" : "Naripalli",
  "Facility_Type" : "Primary Health Centre",
  "District_Name" : "Dharmapuri",
  "Block_Name" : "Harur",
  "Address" : "Naripalli phc building"
},
{
  "srno" : "51",
  "pincode" : "636903",
  "longitude" : "78.533949",
  "latitude" : "12.005075",
  "Taluka_Name" : "Harur",
  "State_Name" : "Tamil Nadu",
  "Health_Facility_Name" : "keeraipatti",
  "Facility_Type" : "SubCentre",
  "District_Name" : "Dharmapuri",
  "Block_Name" : "Harur",
  "Address" : "Keeraipatti building"
},
{
  "srno" : "52",
  "pincode" : "635305",
  "longitude" : "78.396262",
  "latitude" : "12.03096",
  "Taluka_Name" : "Pappireddipatti",
  "State_Name" : "Tamil Nadu",
  "Health_Facility_Name" : "kadathur",
  "Facility_Type" : "Primary Health Centre",
  "District_Name" : "Dharmapuri",
  "Block_Name" : "Morappur",
  "Address" : "Kadathur phc building"
},
{
  "srno" : "53",
  "pincode" : "635111",
  "longitude" : "78.22541",
  "latitude" : "12.283255",
  "Taluka_Name" : "Palakkodu",
  "State_Name" : "Tamil Nadu",
  "Health_Facility_Name" : "Uchampatti",
  "Facility_Type" : "SubCentre",
  "District_Name" : "Dharmapuri",
  "Block_Name" : "Karimangalam",
  "Address" : "GOVT BUILDING"
},
{
  "srno" : "54",
  "pincode" : "636705",
  "longitude" : "78.113461",
  "latitude" : "12.185597",
  "Taluka_Name" : "Palakkodu",
  "State_Name" : "Tamil Nadu",
  "Health_Facility_Name" : "Sekodi",
  "Facility_Type" : "Primary Health Centre",
  "District_Name" : "Dharmapuri",
  "Block_Name" : "Palacode (Palakkodu)",
  "Address" : "Feb-65"
},
{
  "srno" : "55",
  "pincode" : "636704",
  "longitude" : "78.111039",
  "latitude" : "12.057338",
  "Taluka_Name" : "Dharmapuri",
  "State_Name" : "Tamil Nadu",
  "Health_Facility_Name" : "Nallampalli",
  "Facility_Type" : "Primary Health Centre",
  "District_Name" : "Dharmapuri",
  "Block_Name" : "Nallampalli",
  "Address" : "Nallampalli PHC"
},
{
  "srno" : "56",
  "pincode" : "643223",
  "longitude" : "76.6385",
  "latitude" : "11.5668",
  "Taluka_Name" : "Gudalur",
  "State_Name" : "Tamil Nadu",
  "Health_Facility_Name" : "Masinagudi",
  "Facility_Type" : "Primary Health Centre",
  "District_Name" : "The Nilgiris",
  "Block_Name" : "\\N",
  "Address" : "Masinagudi Primary Health Centre"
},
{
  "srno" : "57",
  "pincode" : "643001",
  "longitude" : "76.699939",
  "latitude" : "11.40798",
  "Taluka_Name" : "Udhagamandalam",
  "State_Name" : "Tamil Nadu",
  "Health_Facility_Name" : "UTHAGAMANDALAM",
  "Facility_Type" : "District Hospital",
  "District_Name" : "The Nilgiris",
  "Block_Name" : "Udhagamandalam MPTY",
  "Address" : "Government Head Quarters Hospital"
},
{
  "srno" : "58",
  "pincode" : "643223",
  "longitude" : "76.682564",
  "latitude" : "11.54645",
  "Taluka_Name" : "Gudalur",
  "State_Name" : "Tamil Nadu",
  "Health_Facility_Name" : "Mavanallah",
  "Facility_Type" : "SubCentre",
  "District_Name" : "The Nilgiris",
  "Block_Name" : "\\N",
  "Address" : "9/375"
},
{
  "srno" : "59",
  "pincode" : "641113",
  "longitude" : "76.859147",
  "latitude" : "11.195212",
  "Taluka_Name" : "Mettupalayam",
  "State_Name" : "Tamil Nadu",
  "Health_Facility_Name" : "SEELIYUR",
  "Facility_Type" : "SubCentre",
  "District_Name" : "Coimbatore",
  "Block_Name" : "Karamadai",
  "Address" : "4/118A GOVENMENT BUILDING"
},
{
  "srno" : "60",
  "pincode" : "496661",
  "longitude" : "83.1041",
  "latitude" : "21.9881",
  "Taluka_Name" : "Kharsia",
  "State_Name" : "Chhattisgarh",
  "Health_Facility_Name" : "Civil Hospital Kharsia",
  "Facility_Type" : "Sub-District Hospital",
  "District_Name" : "Raigarh",
  "Block_Name" : "KHARSIYA",
  "Address" : "Civil Hospital Kharsia"
},
{
  "srno" : "61",
  "pincode" : "643223",
  "longitude" : "76.7901",
  "latitude" : "11.562727",
  "Taluka_Name" : "Gudalur",
  "State_Name" : "Tamil Nadu",
  "Health_Facility_Name" : "Moyar",
  "Facility_Type" : "SubCentre",
  "District_Name" : "The Nilgiris",
  "Block_Name" : "\\N",
  "Address" : "May-40"
},
{
  "srno" : "62",
  "pincode" : "614001",
  "longitude" : "79.4507152",
  "latitude" : "10.6648689",
  "Taluka_Name" : "Mannargudi",
  "State_Name" : "Tamil Nadu",
  "Health_Facility_Name" : "MANNARGUDI",
  "Facility_Type" : "District Hospital",
  "District_Name" : "Thiruvarur",
  "Block_Name" : "Mannargudi",
  "Address" : "Government Hospital"
},
{
  "srno" : "63",
  "pincode" : "643240",
  "longitude" : "76.334422",
  "latitude" : "11.583668",
  "Taluka_Name" : "Gudalur",
  "State_Name" : "Tamil Nadu",
  "Health_Facility_Name" : "Mullanvayal",
  "Facility_Type" : "SubCentre",
  "District_Name" : "The Nilgiris",
  "Block_Name" : "\\N",
  "Address" : "Mullanvayal Health Sub Centre"
},
{
  "srno" : "64",
  "pincode" : "614101",
  "longitude" : "79.5192978",
  "latitude" : "10.7098028",
  "Taluka_Name" : "Needamangalam",
  "State_Name" : "Tamil Nadu",
  "Health_Facility_Name" : "Koothanallur UPHC",
  "Facility_Type" : "Primary Health Centre",
  "District_Name" : "Thiruvarur",
  "Block_Name" : "\\N",
  "Address" : "Urban Health Centre"
},
{
  "srno" : "65",
  "pincode" : "614001",
  "longitude" : "79.445122",
  "latitude" : "10.662879",
  "Taluka_Name" : "Mannargudi",
  "State_Name" : "Tamil Nadu",
  "Health_Facility_Name" : "Mannargudi UPHC",
  "Facility_Type" : "Primary Health Centre",
  "District_Name" : "Thiruvarur",
  "Block_Name" : "MANNARGUDI??? MPTY",
  "Address" : "No: 84"
},
{
  "srno" : "66",
  "pincode" : "614001",
  "longitude" : "79.5192978",
  "latitude" : "10.7098028",
  "Taluka_Name" : "Mannargudi",
  "State_Name" : "Tamil Nadu",
  "Health_Facility_Name" : "KOOTHANALLUR",
  "Facility_Type" : "Sub-District Hospital",
  "District_Name" : "Thiruvarur",
  "Block_Name" : "Mannargudi",
  "Address" : "Government Hospital"
},
{
  "srno" : "67",
  "pincode" : "643223",
  "longitude" : "76.613567",
  "latitude" : "11.538793",
  "Taluka_Name" : "Gudalur",
  "State_Name" : "Tamil Nadu",
  "Health_Facility_Name" : "Singara",
  "Facility_Type" : "SubCentre",
  "District_Name" : "The Nilgiris",
  "Block_Name" : "\\N",
  "Address" : "Nov-35"
},
{
  "srno" : "68",
  "pincode" : "496001",
  "longitude" : "83.4032",
  "latitude" : "21.8907",
  "Taluka_Name" : "Raigarh",
  "State_Name" : "Chhattisgarh",
  "Health_Facility_Name" : "DH Raigarh",
  "Facility_Type" : "District Hospital",
  "District_Name" : "Raigarh",
  "Block_Name" : "RAIGARH",
  "Address" : "KGH Hospital"
},
{
  "srno" : "69",
  "pincode" : "600075",
  "longitude" : "80.128426",
  "latitude" : "12.965178",
  "Taluka_Name" : "Sriperumbudur",
  "State_Name" : "Tamil Nadu",
  "Health_Facility_Name" : "SANKARA EYE HOSPITAL",
  "Facility_Type" : "Others",
  "District_Name" : "Kancheepuram",
  "Block_Name" : "Kundrathur",
  "Address" : "1"
},
{
  "srno" : "70",
  "pincode" : "496001",
  "longitude" : "83.41685",
  "latitude" : "21.87422",
  "Taluka_Name" : "Raigarh",
  "State_Name" : "Chhattisgarh",
  "Health_Facility_Name" : "Goverment Medical College, Raigarh",
  "Facility_Type" : "Medical Colleges Hospital",
  "District_Name" : "Raigarh",
  "Block_Name" : "RAIGARH",
  "Address" : "Bendrachuwa, Raigarh   Chhattisgarh"
},
{
  "srno" : "71",
  "pincode" : "641008",
  "longitude" : "76.954953",
  "latitude" : "10.962712",
  "Taluka_Name" : "Coimbatore South",
  "State_Name" : "Tamil Nadu",
  "Health_Facility_Name" : "KUNIAMUTHUR",
  "Facility_Type" : "Primary Health Centre",
  "District_Name" : "Coimbatore",
  "Block_Name" : "Madukkarai",
  "Address" : "URBAN PRIMARY HEALTH CENTRE"
},
{
  "srno" : "72",
  "pincode" : "643240",
  "longitude" : "76.355783",
  "latitude" : "11.575377",
  "Taluka_Name" : "Panthalur",
  "State_Name" : "Tamil Nadu",
  "Health_Facility_Name" : "Kottadu",
  "Facility_Type" : "SubCentre",
  "District_Name" : "The Nilgiris",
  "Block_Name" : "Gudalur MPTY",
  "Address" : "Kottadu Health Sub Centre"
},
{
  "srno" : "73",
  "pincode" : "643223",
  "longitude" : "76.944996",
  "latitude" : "11.009678",
  "Taluka_Name" : "Gudalur",
  "State_Name" : "Tamil Nadu",
  "Health_Facility_Name" : "Anaikatty",
  "Facility_Type" : "SubCentre",
  "District_Name" : "The Nilgiris",
  "Block_Name" : "\\N",
  "Address" : "9/676"
},
{
  "srno" : "74",
  "pincode" : "621301",
  "longitude" : "78.1907",
  "latitude" : "10.5926",
  "Taluka_Name" : "Kadavur",
  "State_Name" : "Tamil Nadu",
  "Health_Facility_Name" : "kadavur",
  "Facility_Type" : "Primary Health Centre",
  "District_Name" : "Karur ",
  "Block_Name" : "Kadavur",
  "Address" : "Primary Health Centre"
},
{
  "srno" : "75",
  "pincode" : "632506",
  "longitude" : "79.082389",
  "latitude" : "12.995343",
  "Taluka_Name" : "Arcot",
  "State_Name" : "Tamil Nadu",
  "Health_Facility_Name" : "Arumbakkam",
  "Facility_Type" : "Primary Health Centre",
  "District_Name" : "Vellore",
  "Block_Name" : "Arcot MPTY",
  "Address" : "PHC Arumbakkam"
},
{
  "srno" : "76",
  "pincode" : "621301",
  "longitude" : "78.2",
  "latitude" : "10.801",
  "Taluka_Name" : "Kadavur",
  "State_Name" : "Tamil Nadu",
  "Health_Facility_Name" : "kaniyalampatty",
  "Facility_Type" : "Primary Health Centre",
  "District_Name" : "Karur ",
  "Block_Name" : "Kadavur",
  "Address" : "Primary Health Centre"
},
{
  "srno" : "77",
  "pincode" : "491885",
  "longitude" : "81.03111265",
  "latitude" : "21.57216323",
  "Taluka_Name" : "Chhuikhadan",
  "State_Name" : "Chhattisgarh",
  "Health_Facility_Name" : "Ghirgholi",
  "Facility_Type" : "Primary Health Centre",
  "District_Name" : "Rajnandgaon",
  "Block_Name" : "CHHUIKHADAAN",
  "Address" : "Primary Health Center Ghirgholi"
},
{
  "srno" : "78",
  "pincode" : "621311",
  "longitude" : "78.246903",
  "latitude" : "10.795405",
  "Taluka_Name" : "Kadavur",
  "State_Name" : "Tamil Nadu",
  "Health_Facility_Name" : "D Edaiyapatti",
  "Facility_Type" : "SubCentre",
  "District_Name" : "Karur ",
  "Block_Name" : "Kadavur",
  "Address" : "Health Sub centre"
},
{
  "srno" : "79",
  "pincode" : "631102",
  "longitude" : "79.431005",
  "latitude" : "13.08884",
  "Taluka_Name" : "Arakonam",
  "State_Name" : "Tamil Nadu",
  "Health_Facility_Name" : "Vengupattu",
  "Facility_Type" : "Primary Health Centre",
  "District_Name" : "Vellore",
  "Block_Name" : "Kaveripakkam",
  "Address" : "HSC Vengupattu"
},
{
  "srno" : "80",
  "pincode" : "632503",
  "longitude" : "79.3382",
  "latitude" : "12.9023",
  "Taluka_Name" : "Arcot",
  "State_Name" : "Tamil Nadu",
  "Health_Facility_Name" : "ARCOT",
  "Facility_Type" : "Sub-District Hospital",
  "District_Name" : "Vellore",
  "Block_Name" : "Arcot MPTY",
  "Address" : "SH 5"
},
{
  "srno" : "81",
  "pincode" : "641653",
  "longitude" : "77.1018",
  "latitude" : "11.2323",
  "Taluka_Name" : "Coimbatore North",
  "State_Name" : "Tamil Nadu",
  "Health_Facility_Name" : "ANNUR",
  "Facility_Type" : "Sub-District Hospital",
  "District_Name" : "Coimbatore",
  "Block_Name" : "Annur",
  "Address" : "ANNUR GH"
},
{
  "srno" : "82",
  "pincode" : "621312",
  "longitude" : "78.20041",
  "latitude" : "10.704646",
  "Taluka_Name" : "Kadavur",
  "State_Name" : "Tamil Nadu",
  "Health_Facility_Name" : "Eruthukonpatti",
  "Facility_Type" : "SubCentre",
  "District_Name" : "Karur ",
  "Block_Name" : "Kadavur",
  "Address" : "Health sub Centre"
},
{
  "srno" : "83",
  "pincode" : "621301",
  "longitude" : "78.202377",
  "latitude" : "10.792118",
  "Taluka_Name" : "Kadavur",
  "State_Name" : "Tamil Nadu",
  "Health_Facility_Name" : "kaniyalampatty",
  "Facility_Type" : "SubCentre",
  "District_Name" : "Karur ",
  "Block_Name" : "Kadavur",
  "Address" : "Health Sub centre"
},
{
  "srno" : "84",
  "pincode" : "639119",
  "longitude" : "78.281428",
  "latitude" : "10.785982",
  "Taluka_Name" : "Kadavur",
  "State_Name" : "Tamil Nadu",
  "Health_Facility_Name" : "keeranoor",
  "Facility_Type" : "SubCentre",
  "District_Name" : "Karur ",
  "Block_Name" : "Kadavur",
  "Address" : "Health Sub centre"
},
{
  "srno" : "85",
  "pincode" : "638315",
  "longitude" : "77.578289",
  "latitude" : "11.475137",
  "Taluka_Name" : "Bhavani",
  "State_Name" : "Tamil Nadu",
  "Health_Facility_Name" : "Appakudal",
  "Facility_Type" : "Primary Health Centre",
  "District_Name" : "Erode",
  "Block_Name" : "Bhavani MPTY",
  "Address" : "Primary Health Centres"
},
{
  "srno" : "86",
  "pincode" : "641664",
  "longitude" : "77.3173",
  "latitude" : "10.9211",
  "Taluka_Name" : "Palladam",
  "State_Name" : "Tamil Nadu",
  "Health_Facility_Name" : "E.VADUGAPALAYAM",
  "Facility_Type" : "Primary Health Centre",
  "District_Name" : "Tiruppur",
  "Block_Name" : "Pongalur",
  "Address" : "PHC E.VADUGAPALAYAM"
},
{
  "srno" : "87",
  "pincode" : "638660",
  "longitude" : "77.438476",
  "latitude" : "10.942147",
  "Taluka_Name" : "Palladam",
  "State_Name" : "Tamil Nadu",
  "Health_Facility_Name" : "KODUVAI",
  "Facility_Type" : "Primary Health Centre",
  "District_Name" : "Tiruppur",
  "Block_Name" : "Pongalur",
  "Address" : "PHC KODUVAI"
},
{
  "srno" : "88",
  "pincode" : "621301",
  "longitude" : "78.24977",
  "latitude" : "10.796368",
  "Taluka_Name" : "Kadavur",
  "State_Name" : "Tamil Nadu",
  "Health_Facility_Name" : "P.Udaiyapatti",
  "Facility_Type" : "SubCentre",
  "District_Name" : "Karur ",
  "Block_Name" : "Kadavur",
  "Address" : "Health Sub centre"
},
{
  "srno" : "89",
  "pincode" : "641708",
  "longitude" : "76.99597",
  "latitude" : "10.535008",
  "Taluka_Name" : "Valparai",
  "State_Name" : "Tamil Nadu",
  "Health_Facility_Name" : "KOTTUR",
  "Facility_Type" : "Sub-District Hospital",
  "District_Name" : "Coimbatore",
  "Block_Name" : "Anamalai",
  "Address" : "KOTTUR GH"
},
{
  "srno" : "90",
  "pincode" : "641665",
  "longitude" : "77.442289",
  "latitude" : "10.983705",
  "Taluka_Name" : "Palladam",
  "State_Name" : "Tamil Nadu",
  "Health_Facility_Name" : "A.Velayuthampalayam",
  "Facility_Type" : "SubCentre",
  "District_Name" : "Tiruppur",
  "Block_Name" : "Pongalur",
  "Address" : "HSC A.Velayuthampalayam"
},
{
  "srno" : "91",
  "pincode" : "638660",
  "longitude" : "77.441417",
  "latitude" : "10.940182",
  "Taluka_Name" : "Palladam",
  "State_Name" : "Tamil Nadu",
  "Health_Facility_Name" : "Koduvai",
  "Facility_Type" : "SubCentre",
  "District_Name" : "Tiruppur",
  "Block_Name" : "Pongalur",
  "Address" : "HSC Koduvai"
},
{
  "srno" : "92",
  "pincode" : "621301",
  "longitude" : "78.224473",
  "latitude" : "10.747781",
  "Taluka_Name" : "Kadavur",
  "State_Name" : "Tamil Nadu",
  "Health_Facility_Name" : "Varavanai",
  "Facility_Type" : "SubCentre",
  "District_Name" : "Karur ",
  "Block_Name" : "Kadavur",
  "Address" : "Health Sub centre"
},
{
  "srno" : "93",
  "pincode" : "638315",
  "longitude" : "77.681761",
  "latitude" : "11.450614",
  "Taluka_Name" : "Bhavani",
  "State_Name" : "Tamil Nadu",
  "Health_Facility_Name" : "Bhavani",
  "Facility_Type" : "Sub-District Hospital",
  "District_Name" : "Erode",
  "Block_Name" : "Bhavani MPTY",
  "Address" : "Sub-Divisional/Taluka"
},
{
  "srno" : "94",
  "pincode" : "635204",
  "longitude" : "78.278505",
  "latitude" : "12.339934",
  "Taluka_Name" : "Pochampalli",
  "State_Name" : "Tamil Nadu",
  "Health_Facility_Name" : "Agaram",
  "Facility_Type" : "SubCentre",
  "District_Name" : "Krishnagiri",
  "Block_Name" : "Kaveripattinam",
  "Address" : "data not avalilabe"
},
{
  "srno" : "95",
  "pincode" : "621309",
  "longitude" : "78.2717",
  "latitude" : "10.819628",
  "Taluka_Name" : "Kadavur",
  "State_Name" : "Tamil Nadu",
  "Health_Facility_Name" : "Velayuthampalayam",
  "Facility_Type" : "SubCentre",
  "District_Name" : "Karur ",
  "Block_Name" : "Kadavur",
  "Address" : "Health Sub centre"
},
{
  "srno" : "96",
  "pincode" : "638455",
  "longitude" : "77.7169",
  "latitude" : "11.339511",
  "Taluka_Name" : "Bhavani",
  "State_Name" : "Tamil Nadu",
  "Health_Facility_Name" : "Kavanthapadi",
  "Facility_Type" : "Sub-District Hospital",
  "District_Name" : "Erode",
  "Block_Name" : "Bhavani MPTY",
  "Address" : "GH"
},
{
  "srno" : "97",
  "pincode" : "641665",
  "longitude" : "77.4235",
  "latitude" : "11.0231389",
  "Taluka_Name" : "Palladam",
  "State_Name" : "Tamil Nadu",
  "Health_Facility_Name" : "Masanallampalayam",
  "Facility_Type" : "SubCentre",
  "District_Name" : "Tiruppur",
  "Block_Name" : "Pongalur",
  "Address" : "HSC Masanallampalayam"
},
{
  "srno" : "98",
  "pincode" : "643212",
  "longitude" : "76.481644",
  "latitude" : "11.5193352",
  "Taluka_Name" : "Gudalur",
  "State_Name" : "Tamil Nadu",
  "Health_Facility_Name" : "Gudalur Urban",
  "Facility_Type" : "Primary Health Centre",
  "District_Name" : "The Nilgiris",
  "Block_Name" : "\\N",
  "Address" : "Gudalur Urban Primary Health Centre"
},
{
  "srno" : "99",
  "pincode" : "data not available",
  "longitude" : "78.173544",
  "latitude" : "12.401442",
  "Taluka_Name" : "Pochampalli",
  "State_Name" : "Tamil Nadu",
  "Health_Facility_Name" : "Kathiripuram",
  "Facility_Type" : "SubCentre",
  "District_Name" : "Krishnagiri",
  "Block_Name" : "Kaveripattinam",
  "Address" : "Kathiripuram"
},
{
  "srno" : "100",
  "pincode" : "641402",
  "longitude" : "77.1232",
  "latitude" : "11.0252",
  "Taluka_Name" : "Sulur",
  "State_Name" : "Tamil Nadu",
  "Health_Facility_Name" : "SULUR",
  "Facility_Type" : "Sub-District Hospital",
  "District_Name" : "Coimbatore",
  "Block_Name" : "Sulur",
  "Address" : "SULUR GH"
},
{
  "srno" : "101",
  "pincode" : "641665",
  "longitude" : "77.4188611",
  "latitude" : "10.9833889",
  "Taluka_Name" : "Palladam",
  "State_Name" : "Tamil Nadu",
  "Health_Facility_Name" : "N.Andipalayam",
  "Facility_Type" : "SubCentre",
  "District_Name" : "Tiruppur",
  "Block_Name" : "Pongalur",
  "Address" : "HSC N.Andipalayam"
},
{
  "srno" : "102",
  "pincode" : "635115",
  "longitude" : "78.172119",
  "latitude" : "12.538048",
  "Taluka_Name" : "Krishnagiri",
  "State_Name" : "Tamil Nadu",
  "Health_Facility_Name" : "THANAMPATTI",
  "Facility_Type" : "Primary Health Centre",
  "District_Name" : "Krishnagiri",
  "Block_Name" : "Krishnagiri MPTY",
  "Address" : "Primary Health Centre-THANAMPATTI"
},
{
  "srno" : "103",
  "pincode" : "635108",
  "longitude" : "78.271424",
  "latitude" : "12.514937",
  "Taluka_Name" : "\\N",
  "State_Name" : "Tamil Nadu",
  "Health_Facility_Name" : "ORAPPAM",
  "Facility_Type" : "Primary Health Centre",
  "District_Name" : "Krishnagiri",
  "Block_Name" : "Bargur",
  "Address" : "data not avalilabe"
},
{
  "srno" : "104",
  "pincode" : "621311",
  "longitude" : "78.19115",
  "latitude" : "10.688821",
  "Taluka_Name" : "Kadavur",
  "State_Name" : "Tamil Nadu",
  "Health_Facility_Name" : "Nallagoundampatti",
  "Facility_Type" : "SubCentre",
  "District_Name" : "Karur ",
  "Block_Name" : "Kadavur",
  "Address" : "Health Sub centre"
},
{
  "srno" : "105",
  "pincode" : "638301",
  "longitude" : "77.683926",
  "latitude" : "11.446974",
  "Taluka_Name" : "Bhavani",
  "State_Name" : "Tamil Nadu",
  "Health_Facility_Name" : "Bhavani UPHC",
  "Facility_Type" : "Primary Health Centre",
  "District_Name" : "Erode",
  "Block_Name" : "Bhavani MPTY",
  "Address" : "Primary Health Centre"
},
{
  "srno" : "106",
  "pincode" : "641605",
  "longitude" : "77.438476",
  "latitude" : "10.942147",
  "Taluka_Name" : "Palladam",
  "State_Name" : "Tamil Nadu",
  "Health_Facility_Name" : "Nachipalayam",
  "Facility_Type" : "SubCentre",
  "District_Name" : "Tiruppur",
  "Block_Name" : "Pongalur",
  "Address" : "HSC Nachipalayam"
},
{
  "srno" : "107",
  "pincode" : "643212",
  "longitude" : "76.3833327",
  "latitude" : "11.476713",
  "Taluka_Name" : "Panthalur",
  "State_Name" : "Tamil Nadu",
  "Health_Facility_Name" : "Nelliyalam Urban",
  "Facility_Type" : "Primary Health Centre",
  "District_Name" : "The Nilgiris",
  "Block_Name" : "Gudalur MPTY",
  "Address" : "Nelliyalam Urban Primary Health Centre"
},
{
  "srno" : "108",
  "pincode" : "641665",
  "longitude" : "77.438476",
  "latitude" : "10.942147",
  "Taluka_Name" : "Palladam",
  "State_Name" : "Tamil Nadu",
  "Health_Facility_Name" : "Peruntholuvu",
  "Facility_Type" : "SubCentre",
  "District_Name" : "Tiruppur",
  "Block_Name" : "Pongalur",
  "Address" : "HSC Peruntholuvu"
},
{
  "srno" : "109",
  "pincode" : "635101",
  "longitude" : "77.6989492",
  "latitude" : "12.8168473",
  "Taluka_Name" : "Pochampalli",
  "State_Name" : "Tamil Nadu",
  "Health_Facility_Name" : "Bommasamuthiram",
  "Facility_Type" : "SubCentre",
  "District_Name" : "Krishnagiri",
  "Block_Name" : "Kaveripattinam",
  "Address" : "data not avalilabe"
},
{
  "srno" : "110",
  "pincode" : "635122",
  "longitude" : "78.085161",
  "latitude" : "12.546861",
  "Taluka_Name" : "Krishnagiri",
  "State_Name" : "Tamil Nadu",
  "Health_Facility_Name" : "BELLAMPALLI",
  "Facility_Type" : "Primary Health Centre",
  "District_Name" : "Krishnagiri",
  "Block_Name" : "Krishnagiri MPTY",
  "Address" : "Primary Health Centre-BELLAMPALLI"
},
{
  "srno" : "111",
  "pincode" : "641665",
  "longitude" : "77.3887778",
  "latitude" : "11.0364722",
  "Taluka_Name" : "Palladam",
  "State_Name" : "Tamil Nadu",
  "Health_Facility_Name" : "Polikalipalayam",
  "Facility_Type" : "SubCentre",
  "District_Name" : "Tiruppur",
  "Block_Name" : "Pongalur",
  "Address" : "HSC Polikalipalayam"
},
{
  "srno" : "112",
  "pincode" : "635109",
  "longitude" : "77.805277",
  "latitude" : "12.692026",
  "Taluka_Name" : "\\N",
  "State_Name" : "Tamil Nadu",
  "Health_Facility_Name" : "Mathagiri",
  "Facility_Type" : "SubCentre",
  "District_Name" : "Krishnagiri",
  "Block_Name" : "Hosur MPTY",
  "Address" : "HSC Mathagiri"
},
{
  "srno" : "113",
  "pincode" : "621311",
  "longitude" : "78.238003",
  "latitude" : "10.647916",
  "Taluka_Name" : "Kadavur",
  "State_Name" : "Tamil Nadu",
  "Health_Facility_Name" : "Palaviduthi",
  "Facility_Type" : "SubCentre",
  "District_Name" : "Karur ",
  "Block_Name" : "Kadavur",
  "Address" : "Health Sub centre"
},
{
  "srno" : "114",
  "pincode" : "635101",
  "longitude" : "78.197641",
  "latitude" : "12.463961",
  "Taluka_Name" : "Krishnagiri",
  "State_Name" : "Tamil Nadu",
  "Health_Facility_Name" : "Periyamuthur",
  "Facility_Type" : "Primary Health Centre",
  "District_Name" : "Krishnagiri",
  "Block_Name" : "Krishnagiri MPTY",
  "Address" : "Primary Health Centre-PERIYAMUTUR"
},
{
  "srno" : "115",
  "pincode" : "641665",
  "longitude" : "77.480038",
  "latitude" : "11.007548",
  "Taluka_Name" : "Palladam",
  "State_Name" : "Tamil Nadu",
  "Health_Facility_Name" : "Poosaripalayam",
  "Facility_Type" : "SubCentre",
  "District_Name" : "Tiruppur",
  "Block_Name" : "Pongalur",
  "Address" : "HSC Poosaripalayam, 4/111"
},
{
  "srno" : "116",
  "pincode" : "635112",
  "longitude" : "78.2594",
  "latitude" : "12.3748",
  "Taluka_Name" : "\\N",
  "State_Name" : "Tamil Nadu",
  "Health_Facility_Name" : "Nedungal",
  "Facility_Type" : "Primary Health Centre",
  "District_Name" : "Krishnagiri",
  "Block_Name" : "Kaveripattinam",
  "Address" : "Primary Health Center-Nedungal"
},
{
  "srno" : "117",
  "pincode" : "642129",
  "longitude" : "76.9198",
  "latitude" : "10.5643",
  "Taluka_Name" : "Valparai",
  "State_Name" : "Tamil Nadu",
  "Health_Facility_Name" : "VETTAIKARANPUTHUR",
  "Facility_Type" : "Sub-District Hospital",
  "District_Name" : "Coimbatore",
  "Block_Name" : "Anamalai",
  "Address" : "VETTAIKARANPUTHUR GH"
},
{
  "srno" : "118",
  "pincode" : "638005",
  "longitude" : "77.714008",
  "latitude" : "11.368233",
  "Taluka_Name" : "Erode",
  "State_Name" : "Tamil Nadu",
  "Health_Facility_Name" : "BP AGARAHARAM UPHC",
  "Facility_Type" : "Primary Health Centre",
  "District_Name" : "Erode",
  "Block_Name" : "Erode CORP",
  "Address" : "Urban primary health centre"
},
{
  "srno" : "119",
  "pincode" : "635204",
  "longitude" : "78.286766",
  "latitude" : "12.397236",
  "Taluka_Name" : "Pochampalli",
  "State_Name" : "Tamil Nadu",
  "Health_Facility_Name" : "Velampatti",
  "Facility_Type" : "SubCentre",
  "District_Name" : "Krishnagiri",
  "Block_Name" : "Kaveripattinam",
  "Address" : "HSC Velampatti"
},
{
  "srno" : "120",
  "pincode" : "635108",
  "longitude" : "78.29484",
  "latitude" : "12.528407",
  "Taluka_Name" : "\\N",
  "State_Name" : "Tamil Nadu",
  "Health_Facility_Name" : "Elathagiri",
  "Facility_Type" : "SubCentre",
  "District_Name" : "Krishnagiri",
  "Block_Name" : "Bargur",
  "Address" : "data not avalilabe"
},
{
  "srno" : "121",
  "pincode" : "606203",
  "longitude" : "79.035483",
  "latitude" : "11.702223",
  "Taluka_Name" : "Kallakkurichi",
  "State_Name" : "Tamil Nadu",
  "Health_Facility_Name" : "Mudiyanur",
  "Facility_Type" : "Primary Health Centre",
  "District_Name" : "Viluppuram",
  "Block_Name" : "Thiyagadurgam",
  "Address" : "Mudiyanur"
},
{
  "srno" : "122",
  "pincode" : "621311",
  "longitude" : "78.340401",
  "latitude" : "10.605604",
  "Taluka_Name" : "Kadavur",
  "State_Name" : "Tamil Nadu",
  "Health_Facility_Name" : "Reddiyapatti",
  "Facility_Type" : "SubCentre",
  "District_Name" : "Karur ",
  "Block_Name" : "Kadavur",
  "Address" : "Health Sub centre"
},
{
  "srno" : "123",
  "pincode" : "638005",
  "longitude" : "77.681463",
  "latitude" : "11.405182",
  "Taluka_Name" : "Erode",
  "State_Name" : "Tamil Nadu",
  "Health_Facility_Name" : "suriyampalayam UPHC",
  "Facility_Type" : "Primary Health Centre",
  "District_Name" : "Erode",
  "Block_Name" : "Erode CORP",
  "Address" : "Urban primary health centre"
},
{
  "srno" : "124",
  "pincode" : "635001",
  "longitude" : "78.2137364",
  "latitude" : "12.5186113",
  "Taluka_Name" : "Krishnagiri",
  "State_Name" : "Tamil Nadu",
  "Health_Facility_Name" : "KRISHNAGIRI UPHC",
  "Facility_Type" : "Primary Health Centre",
  "District_Name" : "Krishnagiri",
  "Block_Name" : "Krishnagiri MPTY",
  "Address" : "data not avalilabe"
},
{
  "srno" : "125",
  "pincode" : "638004",
  "longitude" : "77.709703",
  "latitude" : "11.356395",
  "Taluka_Name" : "Erode",
  "State_Name" : "Tamil Nadu",
  "Health_Facility_Name" : "Veerappan Chatram UPHC",
  "Facility_Type" : "Primary Health Centre",
  "District_Name" : "Erode",
  "Block_Name" : "Erode CORP",
  "Address" : "Urban primary health centre"
},
{
  "srno" : "126",
  "pincode" : "605755",
  "longitude" : "79.325602",
  "latitude" : "11.928231",
  "Taluka_Name" : "Tirukkoyilur",
  "State_Name" : "Tamil Nadu",
  "Health_Facility_Name" : "ARCOT",
  "Facility_Type" : "Primary Health Centre",
  "District_Name" : "Viluppuram",
  "Block_Name" : "Mugaiyur",
  "Address" : "Primary Health Center"
},
{
  "srno" : "127",
  "pincode" : "638004",
  "longitude" : "77.681209",
  "latitude" : "11.364236",
  "Taluka_Name" : "Erode",
  "State_Name" : "Tamil Nadu",
  "Health_Facility_Name" : "PERIASEMUR UPHC",
  "Facility_Type" : "Primary Health Centre",
  "District_Name" : "Erode",
  "Block_Name" : "Erode CORP",
  "Address" : "Urban primary health centre"
},
{
  "srno" : "128",
  "pincode" : "638009",
  "longitude" : "77.71171",
  "latitude" : "11.326815",
  "Taluka_Name" : "Erode",
  "State_Name" : "Tamil Nadu",
  "Health_Facility_Name" : "SOORAMPETTAI UPHC",
  "Facility_Type" : "Primary Health Centre",
  "District_Name" : "Erode",
  "Block_Name" : "Erode CORP",
  "Address" : "Urban primary health centre"
},
{
  "srno" : "129",
  "pincode" : "621311",
  "longitude" : "78.215215",
  "latitude" : "10.797308",
  "Taluka_Name" : "Kadavur",
  "State_Name" : "Tamil Nadu",
  "Health_Facility_Name" : "sukkampatti",
  "Facility_Type" : "SubCentre",
  "District_Name" : "Karur ",
  "Block_Name" : "Kadavur",
  "Address" : "Health Sub centre"
},
{
  "srno" : "130",
  "pincode" : "606115",
  "longitude" : "79.33221",
  "latitude" : "11.713956",
  "Taluka_Name" : "Ulundurpettai",
  "State_Name" : "Tamil Nadu",
  "Health_Facility_Name" : "Senkurichi",
  "Facility_Type" : "Primary Health Centre",
  "District_Name" : "Viluppuram",
  "Block_Name" : "Thirunavalur",
  "Address" : "Senkurichi"
},
{
  "srno" : "131",
  "pincode" : "621311",
  "longitude" : "78.25583",
  "latitude" : "10.624829",
  "Taluka_Name" : "Kadavur",
  "State_Name" : "Tamil Nadu",
  "Health_Facility_Name" : "Veeragoundenpatti",
  "Facility_Type" : "SubCentre",
  "District_Name" : "Karur ",
  "Block_Name" : "Kadavur",
  "Address" : "Health Sub centre"
},
{
  "srno" : "132",
  "pincode" : "604304",
  "longitude" : "79.19708",
  "latitude" : "11.794281",
  "Taluka_Name" : "Ulundurpettai",
  "State_Name" : "Tamil Nadu",
  "Health_Facility_Name" : "Eraiyur",
  "Facility_Type" : "Primary Health Centre",
  "District_Name" : "Viluppuram",
  "Block_Name" : "Ulundurpettai",
  "Address" : "Eraiyur"
},
{
  "srno" : "133",
  "pincode" : "606305",
  "longitude" : "79.191683",
  "latitude" : "11.624568",
  "Taluka_Name" : "Ulundurpettai",
  "State_Name" : "Tamil Nadu",
  "Health_Facility_Name" : "Asanur",
  "Facility_Type" : "Primary Health Centre",
  "District_Name" : "Viluppuram",
  "Block_Name" : "Ulundurpettai",
  "Address" : "Asanur"
},
{
  "srno" : "134",
  "pincode" : "621311",
  "longitude" : "78.197765",
  "latitude" : "10.597633",
  "Taluka_Name" : "Kadavur",
  "State_Name" : "Tamil Nadu",
  "Health_Facility_Name" : "kadavur",
  "Facility_Type" : "SubCentre",
  "District_Name" : "Karur ",
  "Block_Name" : "Kadavur",
  "Address" : "Health Sub centre"
},
{
  "srno" : "135",
  "pincode" : "496116",
  "longitude" : "83.20808011",
  "latitude" : "22.46448163",
  "Taluka_Name" : "Udaipur (Dharamjaigarh)",
  "State_Name" : "Chhattisgarh",
  "Health_Facility_Name" : "Civil Hospital Dharamjaigarh",
  "Facility_Type" : "Civil Hospital/General Hospital",
  "District_Name" : "Raigarh",
  "Block_Name" : "DHARAMJAIGARH",
  "Address" : "Civil Hospital"
},
{
  "srno" : "136",
  "pincode" : "636903",
  "longitude" : "78.475372",
  "latitude" : "12.061148",
  "Taluka_Name" : "Harur",
  "State_Name" : "Tamil Nadu",
  "Health_Facility_Name" : "HARUR",
  "Facility_Type" : "Sub-District Hospital",
  "District_Name" : "Dharmapuri",
  "Block_Name" : "Harur",
  "Address" : "Harur GH"
},
{
  "srno" : "137",
  "pincode" : "621301",
  "longitude" : "78.156443",
  "latitude" : "10.885507",
  "Taluka_Name" : "Kadavur",
  "State_Name" : "Tamil Nadu",
  "Health_Facility_Name" : "Kurinikulathupatti",
  "Facility_Type" : "SubCentre",
  "District_Name" : "Karur ",
  "Block_Name" : "Kadavur",
  "Address" : "Health Sub centre"
},
{
  "srno" : "138",
  "pincode" : "621301",
  "longitude" : "77.845938",
  "latitude" : "10.792652",
  "Taluka_Name" : "Kadavur",
  "State_Name" : "Tamil Nadu",
  "Health_Facility_Name" : "Mamarathupatti",
  "Facility_Type" : "SubCentre",
  "District_Name" : "Karur ",
  "Block_Name" : "Kadavur",
  "Address" : "Health Sub centre"
},
{
  "srno" : "139",
  "pincode" : "636810",
  "longitude" : "77.902363",
  "latitude" : "12.129591",
  "Taluka_Name" : "Pennagaram",
  "State_Name" : "Tamil Nadu",
  "Health_Facility_Name" : "PENNAGARAM",
  "Facility_Type" : "District Hospital",
  "District_Name" : "Dharmapuri",
  "Block_Name" : "Pennagaram",
  "Address" : "Pennagaram Government Hospital"
},

{
  "srno" : "141",
  "pincode" : "621311",
  "longitude" : "78.239783",
  "latitude" : "10.707853",
  "Taluka_Name" : "Kadavur",
  "State_Name" : "Tamil Nadu",
  "Health_Facility_Name" : "Tharagampatti",
  "Facility_Type" : "SubCentre",
  "District_Name" : "Karur ",
  "Block_Name" : "Kadavur",
  "Address" : "Health Sub centre"
},
{
  "srno" : "142",
  "pincode" : "605751",
  "longitude" : "79.14771",
  "latitude" : "11.848333",
  "Taluka_Name" : "Ulundurpettai",
  "State_Name" : "Tamil Nadu",
  "Health_Facility_Name" : "Kattuedaiyar",
  "Facility_Type" : "Primary Health Centre",
  "District_Name" : "Viluppuram",
  "Block_Name" : "Ulundurpettai",
  "Address" : "Kattuedaiyar"
},
{
  "srno" : "143",
  "pincode" : "621301",
  "longitude" : "78.278936",
  "latitude" : "10.732193",
  "Taluka_Name" : "Kadavur",
  "State_Name" : "Tamil Nadu",
  "Health_Facility_Name" : "Valvarmangalam",
  "Facility_Type" : "SubCentre",
  "District_Name" : "Karur ",
  "Block_Name" : "Kadavur",
  "Address" : "Health Sub centre"
},
{
  "srno" : "144",
  "pincode" : "605802",
  "longitude" : "79.042626",
  "latitude" : "11.974463",
  "Taluka_Name" : "Sankarapuram",
  "State_Name" : "Tamil Nadu",
  "Health_Facility_Name" : "Seerpanandal",
  "Facility_Type" : "Primary Health Centre",
  "District_Name" : "Viluppuram",
  "Block_Name" : "Rishivandiyam",
  "Address" : "Primary Health Center"
},
{
  "srno" : "145",
  "pincode" : "636808",
  "longitude" : "78.132023",
  "latitude" : "12.214333",
  "Taluka_Name" : "Palakkodu",
  "State_Name" : "Tamil Nadu",
  "Health_Facility_Name" : "PALACODE",
  "Facility_Type" : "Sub-District Hospital",
  "District_Name" : "Dharmapuri",
  "Block_Name" : "Palacode (Palakkodu)",
  "Address" : "Palacode Government Hospital"
},
{
  "srno" : "146",
  "pincode" : "621301",
  "longitude" : "78.207025",
  "latitude" : "10.724607",
  "Taluka_Name" : "Kadavur",
  "State_Name" : "Tamil Nadu",
  "Health_Facility_Name" : "Veeranampatti",
  "Facility_Type" : "SubCentre",
  "District_Name" : "Karur ",
  "Block_Name" : "Kadavur",
  "Address" : "Health Sub centre"
},
{
  "srno" : "147",
  "pincode" : "606401",
  "longitude" : "78.859848",
  "latitude" : "11.893005",
  "Taluka_Name" : "Sankarapuram",
  "State_Name" : "Tamil Nadu",
  "Health_Facility_Name" : "Arasampattu",
  "Facility_Type" : "Primary Health Centre",
  "District_Name" : "Viluppuram",
  "Block_Name" : "Sankarapuram",
  "Address" : "Medical Officer Govt Primary Health Centre Arasampattu"
},
{
  "srno" : "148",
  "pincode" : "641041",
  "longitude" : "76.8980371",
  "latitude" : "11.0247473",
  "Taluka_Name" : "Coimbatore South",
  "State_Name" : "Tamil Nadu",
  "Health_Facility_Name" : "VADAVALLI UPHC",
  "Facility_Type" : "Primary Health Centre",
  "District_Name" : "Coimbatore",
  "Block_Name" : "Thondamuthur",
  "Address" : "VADAVALLI UPHC"
},
{
  "srno" : "149",
  "pincode" : "636905",
  "longitude" : "78.364843",
  "latitude" : "11.918415",
  "Taluka_Name" : "Pappireddipatti",
  "State_Name" : "Tamil Nadu",
  "Health_Facility_Name" : "PAPPIREDDIPATTI",
  "Facility_Type" : "Sub-District Hospital",
  "District_Name" : "Dharmapuri",
  "Block_Name" : "Pappireddipatti",
  "Address" : "Pappiredipatti Government Hospital"
},
{
  "srno" : "150",
  "pincode" : "124103",
  "longitude" : "76.38",
  "latitude" : "28.36",
  "Taluka_Name" : "Jhajjar",
  "State_Name" : "Haryana",
  "Health_Facility_Name" : "Civil Hospital jhajjar",
  "Facility_Type" : "District Hospital",
  "District_Name" : "Jhajjar",
  "Block_Name" : "GH Jhajjar",
  "Address" : "Civil Hospital, Jhajjar"
},
{
  "srno" : "151",
  "pincode" : "607001",
  "longitude" : "79.760034",
  "latitude" : "11.757087",
  "Taluka_Name" : "Cuddalore",
  "State_Name" : "Tamil Nadu",
  "Health_Facility_Name" : "CUDDALORE",
  "Facility_Type" : "District Hospital",
  "District_Name" : "Cuddalore",
  "Block_Name" : "Cuddalore MPTY",
  "Address" : "Government Building"
},
{
  "srno" : "152",
  "pincode" : "605757",
  "longitude" : "79.202986",
  "latitude" : "11.969495",
  "Taluka_Name" : "Tirukkoyilur",
  "State_Name" : "Tamil Nadu",
  "Health_Facility_Name" : "THIRUKOILUR UPHC",
  "Facility_Type" : "Primary Health Centre",
  "District_Name" : "Viluppuram",
  "Block_Name" : "Thirukoilur",
  "Address" : "Thirukoilur"
},
{
  "srno" : "153",
  "pincode" : "639113",
  "longitude" : "78.072325",
  "latitude" : "11.066831",
  "Taluka_Name" : "Karur",
  "State_Name" : "Tamil Nadu",
  "Health_Facility_Name" : "Kadambankurichi",
  "Facility_Type" : "SubCentre",
  "District_Name" : "Karur ",
  "Block_Name" : "Karur MPTY",
  "Address" : "Health Sub centre"
},
{
  "srno" : "154",
  "pincode" : "636701",
  "longitude" : "78.157252",
  "latitude" : "12.122189",
  "Taluka_Name" : "Dharmapuri",
  "State_Name" : "Tamil Nadu",
  "Health_Facility_Name" : "DHARMAPURI MEDL COLL HOSPITAL  MCH",
  "Facility_Type" : "Medical Colleges Hospital",
  "District_Name" : "Dharmapuri",
  "Block_Name" : "Dharmapuri MPTY",
  "Address" : "3/29A,"
},
{
  "srno" : "155",
  "pincode" : "124103",
  "longitude" : "76.39",
  "latitude" : "28.36",
  "Taluka_Name" : "Jhajjar",
  "State_Name" : "Haryana",
  "Health_Facility_Name" : "PPC JHAJJAR",
  "Facility_Type" : "SubCentre",
  "District_Name" : "Jhajjar",
  "Block_Name" : "\\N",
  "Address" : "Civil Hospital, Jhajjar"
},
{
  "srno" : "156",
  "pincode" : "607106",
  "longitude" : "79.549828",
  "latitude" : "11.767497",
  "Taluka_Name" : "Panruti",
  "State_Name" : "Tamil Nadu",
  "Health_Facility_Name" : "PANRUTTI",
  "Facility_Type" : "Sub-District Hospital",
  "District_Name" : "Cuddalore",
  "Block_Name" : "Panruti MPTY",
  "Address" : "NH 45 C"
},
{
  "srno" : "157",
  "pincode" : "734214",
  "longitude" : "88.147817",
  "latitude" : "26.9112",
  "Taluka_Name" : "Mirik",
  "State_Name" : "West Bengal",
  "Health_Facility_Name" : "Okaity SC",
  "Facility_Type" : "SubCentre",
  "District_Name" : "Darjiling",
  "Block_Name" : "Mirik",
  "Address" : "Okaity Govt. SC Building"
},
{
  "srno" : "158",
  "pincode" : "639116",
  "longitude" : "78.112967",
  "latitude" : "11.027462",
  "Taluka_Name" : "Karur",
  "State_Name" : "Tamil Nadu",
  "Health_Facility_Name" : "Kuppichipalayam",
  "Facility_Type" : "SubCentre",
  "District_Name" : "Karur ",
  "Block_Name" : "Karur MPTY",
  "Address" : "Health Sub centre"
},
{
  "srno" : "159",
  "pincode" : "632002",
  "longitude" : "79.072979",
  "latitude" : "12.8950813",
  "Taluka_Name" : "Vellore",
  "State_Name" : "Tamil Nadu",
  "Health_Facility_Name" : "Sembedu",
  "Facility_Type" : "Primary Health Centre",
  "District_Name" : "Vellore",
  "Block_Name" : "Vellore CORP",
  "Address" : "Sembedu PHC"
},
{
  "srno" : "160",
  "pincode" : "608001",
  "longitude" : "79.699365",
  "latitude" : "11.395203",
  "Taluka_Name" : "Chidambaram",
  "State_Name" : "Tamil Nadu",
  "Health_Facility_Name" : "CHIDAMBARAM",
  "Facility_Type" : "Sub-District Hospital",
  "District_Name" : "Cuddalore",
  "Block_Name" : "Kumaratchi",
  "Address" : "Government Building"
},
{
  "srno" : "161",
  "pincode" : "639116",
  "longitude" : "78.117244",
  "latitude" : "10.99985",
  "Taluka_Name" : "Karur",
  "State_Name" : "Tamil Nadu",
  "Health_Facility_Name" : "Minnampalli",
  "Facility_Type" : "SubCentre",
  "District_Name" : "Karur ",
  "Block_Name" : "Karur MPTY",
  "Address" : "Health Sub centre"
},
{
  "srno" : "162",
  "pincode" : "816110",
  "longitude" : "87.670969",
  "latitude" : "24.818605",
  "Taluka_Name" : "PATHNA",
  "State_Name" : "Jharkhand",
  "Health_Facility_Name" : "HSC LAKHIPUR",
  "Facility_Type" : "SubCentre",
  "District_Name" : "SAHIBGANJ",
  "Block_Name" : "PATHNA",
  "Address" : "Goverment building"
},
{
  "srno" : "163",
  "pincode" : "632009",
  "longitude" : "79.183069",
  "latitude" : "12.942237",
  "Taluka_Name" : "Vellore",
  "State_Name" : "Tamil Nadu",
  "Health_Facility_Name" : "SATHUVACHARI",
  "Facility_Type" : "Primary Health Centre",
  "District_Name" : "Vellore",
  "Block_Name" : "Vellore CORP",
  "Address" : "Sathuvachari UPHC"
},
{
  "srno" : "164",
  "pincode" : "606001",
  "longitude" : "79.317366",
  "latitude" : "11.515631",
  "Taluka_Name" : "Virudhachalam",
  "State_Name" : "Tamil Nadu",
  "Health_Facility_Name" : "VIRUDHACHALAM",
  "Facility_Type" : "Sub-District Hospital",
  "District_Name" : "Cuddalore",
  "Block_Name" : "Virudhachalam MPTY",
  "Address" : "Government Building"
},
{
  "srno" : "165",
  "pincode" : "639006",
  "longitude" : "78.063767",
  "latitude" : "11.027596",
  "Taluka_Name" : "Karur",
  "State_Name" : "Tamil Nadu",
  "Health_Facility_Name" : "Manmangalam",
  "Facility_Type" : "SubCentre",
  "District_Name" : "Karur ",
  "Block_Name" : "Karur MPTY",
  "Address" : "Health Sub centre"
},
{
  "srno" : "166",
  "pincode" : "641110",
  "longitude" : "76.88745",
  "latitude" : "11.218859",
  "Taluka_Name" : "Mettupalayam",
  "State_Name" : "Tamil Nadu",
  "Health_Facility_Name" : "Pujanganur",
  "Facility_Type" : "SubCentre",
  "District_Name" : "Coimbatore",
  "Block_Name" : "Karamadai",
  "Address" : "1/33 A"
},
{
  "srno" : "167",
  "pincode" : "608301",
  "longitude" : "79.552102",
  "latitude" : "11.284465",
  "Taluka_Name" : "Kattumannarkoil",
  "State_Name" : "Tamil Nadu",
  "Health_Facility_Name" : "KATTUMANNARKOIL",
  "Facility_Type" : "Sub-District Hospital",
  "District_Name" : "Cuddalore",
  "Block_Name" : "Kattumannarkoil",
  "Address" : "Government Building"
},

{
  "srno" : "169",
  "pincode" : "606105",
  "longitude" : "79.122784",
  "latitude" : "11.401305",
  "Taluka_Name" : "Tittakudi",
  "State_Name" : "Tamil Nadu",
  "Health_Facility_Name" : "THITTAKUDI",
  "Facility_Type" : "Sub-District Hospital",
  "District_Name" : "Cuddalore",
  "Block_Name" : "Mangalur",
  "Address" : "Government Building"
},
{
  "srno" : "170",
  "pincode" : "639004",
  "longitude" : "78.152168",
  "latitude" : "11.003313",
  "Taluka_Name" : "Karur",
  "State_Name" : "Tamil Nadu",
  "Health_Facility_Name" : "Nerur",
  "Facility_Type" : "SubCentre",
  "District_Name" : "Karur ",
  "Block_Name" : "Karur MPTY",
  "Address" : "Health Sub centre"
},
{
  "srno" : "171",
  "pincode" : "639004",
  "longitude" : "78.118669",
  "latitude" : "10.98325",
  "Taluka_Name" : "Karur",
  "State_Name" : "Tamil Nadu",
  "Health_Facility_Name" : "Panjamadevi",
  "Facility_Type" : "SubCentre",
  "District_Name" : "Karur ",
  "Block_Name" : "Karur MPTY",
  "Address" : "Health Sub centre"
},
{
  "srno" : "172",
  "pincode" : "607302",
  "longitude" : "79.597497",
  "latitude" : "11.560902",
  "Taluka_Name" : "Kurinjipadi ",
  "State_Name" : "Tamil Nadu",
  "Health_Facility_Name" : "KURINCHIPADI",
  "Facility_Type" : "Sub-District Hospital",
  "District_Name" : "Cuddalore",
  "Block_Name" : "Kurunjipadi",
  "Address" : "Government Building"
},
{
  "srno" : "173",
  "pincode" : "639114",
  "longitude" : "78.160006",
  "latitude" : "10.968212",
  "Taluka_Name" : "Karur",
  "State_Name" : "Tamil Nadu",
  "Health_Facility_Name" : "somur",
  "Facility_Type" : "SubCentre",
  "District_Name" : "Karur ",
  "Block_Name" : "Karur MPTY",
  "Address" : "Health Sub centre"
},
{
  "srno" : "174",
  "pincode" : "639117",
  "longitude" : "78.113679",
  "latitude" : "11.042075",
  "Taluka_Name" : "Karur",
  "State_Name" : "Tamil Nadu",
  "Health_Facility_Name" : "Vangal",
  "Facility_Type" : "SubCentre",
  "District_Name" : "Karur ",
  "Block_Name" : "Karur MPTY",
  "Address" : "Health Sub centre"
},